{"type":"FeatureCollection","features":[{"type":"Feature","id":0,"geometry":{"type":"Point","coordinates":[-80.36164399099988,25.621059824999993]},"properties":{"FID":0,"NAME":"Palmetto Estates","CLASS":"Census Designated Place","STATE_ABBR":"FL","STATE_FIPS":12,"PLACE_FIPS":1254300,"POPULATION":13498,"POP_CLASS":6,"POP_SQMI":6107.7002,"SQMI":2.21000004,"CAPITAL":" "}},{"type":"Feature","id":1,"geometry":{"type":"Point","coordinates":[-82.747901463999895,28.083031877999989]},"properties":{"FID":1,"NAME":"Palm Harbor","CLASS":"Census Designated Place","STATE_ABBR":"FL","STATE_FIPS":12,"PLACE_FIPS":1254350,"POPULATION":61366,"POP_CLASS":7,"POP_SQMI":3435.8999,"SQMI":17.8600006,"CAPITAL":" "}},{"type":"Feature","id":2,"geometry":{"type":"Point","coordinates":[-82.379379448000009,27.923854947999999]},"properties":{"FID":2,"NAME":"Palm River-Clair Mel","CLASS":"Census Designated Place","STATE_ABBR":"FL","STATE_FIPS":12,"PLACE_FIPS":1254387,"POPULATION":26142,"POP_CLASS":6,"POP_SQMI":2238.19995,"SQMI":11.6800003,"CAPITAL":" "}},{"type":"Feature","id":3,"geometry":{"type":"Point","coordinates":[-80.095880323999893,26.637548025000083]},"properties":{"FID":3,"NAME":"Palm Springs","CLASS":"village","STATE_ABBR":"FL","STATE_FIPS":12,"PLACE_FIPS":1254450,"POPULATION":26890,"POP_CLASS":6,"POP_SQMI":6312.2002,"SQMI":4.26000023,"CAPITAL":" "}},{"type":"Feature","id":4,"geometry":{"type":"Point","coordinates":[-81.394415218999896,30.200931388000086]},"properties":{"FID":4,"NAME":"Palm Valley","CLASS":"Census Designated Place","STATE_ABBR":"FL","STATE_FIPS":12,"PLACE_FIPS":1254525,"POPULATION":21827,"POP_CLASS":6,"POP_SQMI":1654.80005,"SQMI":13.1899996,"CAPITAL":" "}},{"type":"Feature","id":5,"geometry":{"type":"Point","coordinates":[-85.668625731999995,30.179874045000105]},"properties":{"FID":5,"NAME":"Panama City","CLASS":"city","STATE_ABBR":"FL","STATE_FIPS":12,"PLACE_FIPS":1254700,"POPULATION":32939,"POP_CLASS":6,"POP_SQMI":936.799988,"SQMI":35.1599998,"CAPITAL":" "}},{"type":"Feature","id":6,"geometry":{"type":"Point","coordinates":[-85.831328538999983,30.194928470999997]},"properties":{"FID":6,"NAME":"Panama City Beach","CLASS":"city","STATE_ABBR":"FL","STATE_FIPS":12,"PLACE_FIPS":1254725,"POPULATION":18094,"POP_CLASS":6,"POP_SQMI":926.900024,"SQMI":19.5200005,"CAPITAL":" "}},{"type":"Feature","id":7,"geometry":{"type":"Point","coordinates":[-80.226115250000007,26.317732367000087]},"properties":{"FID":7,"NAME":"Parkland","CLASS":"city","STATE_ABBR":"FL","STATE_FIPS":12,"PLACE_FIPS":1255125,"POPULATION":34670,"POP_CLASS":6,"POP_SQMI":2416,"SQMI":14.3500004,"CAPITAL":" "}},{"type":"Feature","id":8,"geometry":{"type":"Point","coordinates":[-80.280715606999905,26.011454868000008]},"properties":{"FID":8,"NAME":"Pembroke Pines","CLASS":"city","STATE_ABBR":"FL","STATE_FIPS":12,"PLACE_FIPS":1255775,"POPULATION":171178,"POP_CLASS":8,"POP_SQMI":4924.6001,"SQMI":34.7599983,"CAPITAL":" "}},{"type":"Feature","id":9,"geometry":{"type":"Point","coordinates":[-87.20404999899992,30.432934902000092]},"properties":{"FID":9,"NAME":"Pensacola","CLASS":"city","STATE_ABBR":"FL","STATE_FIPS":12,"PLACE_FIPS":1255925,"POPULATION":54312,"POP_CLASS":7,"POP_SQMI":2386.30005,"SQMI":22.7600002,"CAPITAL":" "}},{"type":"Feature","id":10,"geometry":{"type":"Point","coordinates":[-81.373975592999997,28.465148015000093]},"properties":{"FID":10,"NAME":"Pine Castle","CLASS":"Census Designated Place","STATE_ABBR":"FL","STATE_FIPS":12,"PLACE_FIPS":1256500,"POPULATION":11122,"POP_CLASS":6,"POP_SQMI":4134.6001,"SQMI":2.69000006,"CAPITAL":" "}},{"type":"Feature","id":11,"geometry":{"type":"Point","coordinates":[-80.3042270669999,25.665020824000088]},"properties":{"FID":11,"NAME":"Pinecrest","CLASS":"village","STATE_ABBR":"FL","STATE_FIPS":12,"PLACE_FIPS":1256625,"POPULATION":18388,"POP_CLASS":6,"POP_SQMI":2438.69995,"SQMI":7.53999996,"CAPITAL":" "}},{"type":"Feature","id":12,"geometry":{"type":"Point","coordinates":[-81.446516360000004,28.554492251999996]},"properties":{"FID":12,"NAME":"Pine Hills","CLASS":"Census Designated Place","STATE_ABBR":"FL","STATE_FIPS":12,"PLACE_FIPS":1256825,"POPULATION":66111,"POP_CLASS":7,"POP_SQMI":5213.7998,"SQMI":12.6800003,"CAPITAL":" "}},{"type":"Feature","id":13,"geometry":{"type":"Point","coordinates":[-82.710579999999894,27.849364212000104]},"properties":{"FID":13,"NAME":"Pinellas Park","CLASS":"city","STATE_ABBR":"FL","STATE_FIPS":12,"PLACE_FIPS":1256975,"POPULATION":53093,"POP_CLASS":7,"POP_SQMI":3164.1001,"SQMI":16.7800007,"CAPITAL":" "}},{"type":"Feature","id":14,"geometry":{"type":"Point","coordinates":[-80.217419021999916,25.86979814099999]},"properties":{"FID":14,"NAME":"Pinewood","CLASS":"Census Designated Place","STATE_ABBR":"FL","STATE_FIPS":12,"PLACE_FIPS":1257250,"POPULATION":17246,"POP_CLASS":6,"POP_SQMI":9124.90039,"SQMI":1.88999999,"CAPITAL":" "}},{"type":"Feature","id":15,"geometry":{"type":"Point","coordinates":[-80.261715921999993,26.125976501]},"properties":{"FID":15,"NAME":"Plantation","CLASS":"city","STATE_ABBR":"FL","STATE_FIPS":12,"PLACE_FIPS":1257425,"POPULATION":91750,"POP_CLASS":7,"POP_SQMI":4161,"SQMI":22.0499992,"CAPITAL":" "}},{"type":"Feature","id":16,"geometry":{"type":"Point","coordinates":[-82.120212959,28.014457528000005]},"properties":{"FID":16,"NAME":"Plant City","CLASS":"city","STATE_ABBR":"FL","STATE_FIPS":12,"PLACE_FIPS":1257550,"POPULATION":39764,"POP_CLASS":6,"POP_SQMI":1395.19995,"SQMI":28.5,"CAPITAL":" "}},{"type":"Feature","id":17,"geometry":{"type":"Point","coordinates":[-81.482045186999997,28.121676181999995]},"properties":{"FID":17,"NAME":"Poinciana","CLASS":"Census Designated Place","STATE_ABBR":"FL","STATE_FIPS":12,"PLACE_FIPS":1257900,"POPULATION":69309,"POP_CLASS":7,"POP_SQMI":950.200012,"SQMI":72.9400024,"CAPITAL":" "}},{"type":"Feature","id":18,"geometry":{"type":"Point","coordinates":[-80.13318900900002,26.243001909]},"properties":{"FID":18,"NAME":"Pompano Beach","CLASS":"city","STATE_ABBR":"FL","STATE_FIPS":12,"PLACE_FIPS":1258050,"POPULATION":112046,"POP_CLASS":8,"POP_SQMI":4592,"SQMI":24.3999996,"CAPITAL":" "}},{"type":"Feature","id":19,"geometry":{"type":"Point","coordinates":[-82.099983318999989,26.982810593000099]},"properties":{"FID":19,"NAME":"Port Charlotte","CLASS":"Census Designated Place","STATE_ABBR":"FL","STATE_FIPS":12,"PLACE_FIPS":1258350,"POPULATION":60625,"POP_CLASS":7,"POP_SQMI":1991.59998,"SQMI":30.4400005,"CAPITAL":" "}},{"type":"Feature","id":20,"geometry":{"type":"Point","coordinates":[-81.016501364999996,29.117989208999994]},"properties":{"FID":20,"NAME":"Port Orange","CLASS":"city","STATE_ABBR":"FL","STATE_FIPS":12,"PLACE_FIPS":1258575,"POPULATION":62596,"POP_CLASS":7,"POP_SQMI":2310.69995,"SQMI":27.0900002,"CAPITAL":" "}},{"type":"Feature","id":21,"geometry":{"type":"Point","coordinates":[-80.787428897000012,28.477052618000101]},"properties":{"FID":21,"NAME":"Port St. John","CLASS":"Census Designated Place","STATE_ABBR":"FL","STATE_FIPS":12,"PLACE_FIPS":1258700,"POPULATION":23474,"POP_CLASS":6,"POP_SQMI":2518.69995,"SQMI":9.31999969,"CAPITAL":" "}},{"type":"Feature","id":22,"geometry":{"type":"Point","coordinates":[-80.432216249999996,27.255986471]},"properties":{"FID":22,"NAME":"Port St. Lucie","CLASS":"city","STATE_ABBR":"FL","STATE_FIPS":12,"PLACE_FIPS":1258715,"POPULATION":204851,"POP_CLASS":8,"POP_SQMI":1699.90002,"SQMI":120.510002,"CAPITAL":" "}},{"type":"Feature","id":23,"geometry":{"type":"Point","coordinates":[-80.397161975999893,25.539672403999997]},"properties":{"FID":23,"NAME":"Princeton","CLASS":"Census Designated Place","STATE_ABBR":"FL","STATE_FIPS":12,"PLACE_FIPS":1258975,"POPULATION":39308,"POP_CLASS":6,"POP_SQMI":5262.1001,"SQMI":7.46999979,"CAPITAL":" "}},{"type":"Feature","id":24,"geometry":{"type":"Point","coordinates":[-82.047728999,26.917016472000089]},"properties":{"FID":24,"NAME":"Punta Gorda","CLASS":"city","STATE_ABBR":"FL","STATE_FIPS":12,"PLACE_FIPS":1259200,"POPULATION":19471,"POP_CLASS":6,"POP_SQMI":1105.69995,"SQMI":17.6100006,"CAPITAL":" "}},{"type":"Feature","id":25,"geometry":{"type":"Point","coordinates":[-80.429719114999997,25.610504693000099]},"properties":{"FID":25,"NAME":"Richmond West","CLASS":"Census Designated Place","STATE_ABBR":"FL","STATE_FIPS":12,"PLACE_FIPS":1260230,"POPULATION":35884,"POP_CLASS":6,"POP_SQMI":8384.09961,"SQMI":4.28000021,"CAPITAL":" "}},{"type":"Feature","id":26,"geometry":{"type":"Point","coordinates":[-82.326573194999995,27.87124559000009]},"properties":{"FID":26,"NAME":"Riverview","CLASS":"Census Designated Place","STATE_ABBR":"FL","STATE_FIPS":12,"PLACE_FIPS":1260950,"POPULATION":107396,"POP_CLASS":8,"POP_SQMI":2245.80005,"SQMI":47.8199997,"CAPITAL":" "}},{"type":"Feature","id":27,"geometry":{"type":"Point","coordinates":[-80.071113519999997,26.778540696000096]},"properties":{"FID":27,"NAME":"Riviera Beach","CLASS":"city","STATE_ABBR":"FL","STATE_FIPS":12,"PLACE_FIPS":1260975,"POPULATION":37604,"POP_CLASS":6,"POP_SQMI":4450.2002,"SQMI":8.44999981,"CAPITAL":" "}},{"type":"Feature","id":28,"geometry":{"type":"Point","coordinates":[-80.734564222999893,28.318986447999997]},"properties":{"FID":28,"NAME":"Rockledge","CLASS":"city","STATE_ABBR":"FL","STATE_FIPS":12,"PLACE_FIPS":1261500,"POPULATION":27678,"POP_CLASS":6,"POP_SQMI":2064,"SQMI":13.4099998,"CAPITAL":" "}},{"type":"Feature","id":29,"geometry":{"type":"Point","coordinates":[-80.224562535000004,26.704629352000001]},"properties":{"FID":29,"NAME":"Royal Palm Beach","CLASS":"village","STATE_ABBR":"FL","STATE_FIPS":12,"PLACE_FIPS":1262100,"POPULATION":38932,"POP_CLASS":6,"POP_SQMI":3327.5,"SQMI":11.6999998,"CAPITAL":" "}},{"type":"Feature","id":30,"geometry":{"type":"Point","coordinates":[-82.420071041000014,27.706475057999995]},"properties":{"FID":30,"NAME":"Ruskin","CLASS":"Census Designated Place","STATE_ABBR":"FL","STATE_FIPS":12,"PLACE_FIPS":1262275,"POPULATION":28620,"POP_CLASS":6,"POP_SQMI":1512.69995,"SQMI":18.9200001,"CAPITAL":" "}},{"type":"Feature","id":31,"geometry":{"type":"Point","coordinates":[-82.693715999999895,27.982358159000089]},"properties":{"FID":31,"NAME":"Safety Harbor","CLASS":"city","STATE_ABBR":"FL","STATE_FIPS":12,"PLACE_FIPS":1262425,"POPULATION":17072,"POP_CLASS":6,"POP_SQMI":3414.3999,"SQMI":5,"CAPITAL":" "}},{"type":"Feature","id":32,"geometry":{"type":"Point","coordinates":[-81.320741068000004,29.916600091000095]},"properties":{"FID":32,"NAME":"St. Augustine","CLASS":"city","STATE_ABBR":"FL","STATE_FIPS":12,"PLACE_FIPS":1262500,"POPULATION":14329,"POP_CLASS":6,"POP_SQMI":1474.19995,"SQMI":9.72000027,"CAPITAL":" "}},{"type":"Feature","id":33,"geometry":{"type":"Point","coordinates":[-81.272046499999988,28.214386406000084]},"properties":{"FID":33,"NAME":"St. Cloud","CLASS":"city","STATE_ABBR":"FL","STATE_FIPS":12,"PLACE_FIPS":1262625,"POPULATION":58964,"POP_CLASS":7,"POP_SQMI":2313.19995,"SQMI":25.4899998,"CAPITAL":" "}},{"type":"Feature","id":34,"geometry":{"type":"Point","coordinates":[-82.675223498999983,27.757094570999996]},"properties":{"FID":34,"NAME":"St. Petersburg","CLASS":"city","STATE_ABBR":"FL","STATE_FIPS":12,"PLACE_FIPS":1263000,"POPULATION":258308,"POP_CLASS":9,"POP_SQMI":4026,"SQMI":64.1600037,"CAPITAL":" "}},{"type":"Feature","id":35,"geometry":{"type":"Point","coordinates":[-81.819291030999992,26.476504783000095]},"properties":{"FID":35,"NAME":"San Carlos Park","CLASS":"Census Designated Place","STATE_ABBR":"FL","STATE_FIPS":12,"PLACE_FIPS":1263425,"POPULATION":18563,"POP_CLASS":6,"POP_SQMI":3735,"SQMI":4.96999979,"CAPITAL":" "}},{"type":"Feature","id":36,"geometry":{"type":"Point","coordinates":[-81.277235543000003,28.789125857999995]},"properties":{"FID":36,"NAME":"Sanford","CLASS":"city","STATE_ABBR":"FL","STATE_FIPS":12,"PLACE_FIPS":1263650,"POPULATION":61051,"POP_CLASS":7,"POP_SQMI":2246.19995,"SQMI":27.1800003,"CAPITAL":" "}},{"type":"Feature","id":37,"geometry":{"type":"Point","coordinates":[-82.526631295999906,27.341584430000097]},"properties":{"FID":37,"NAME":"Sarasota","CLASS":"city","STATE_ABBR":"FL","STATE_FIPS":12,"PLACE_FIPS":1264175,"POPULATION":54842,"POP_CLASS":7,"POP_SQMI":3698,"SQMI":14.8299999,"CAPITAL":" "}},{"type":"Feature","id":38,"geometry":{"type":"Point","coordinates":[-82.478851938999995,27.309251438000008]},"properties":{"FID":38,"NAME":"Sarasota Springs","CLASS":"Census Designated Place","STATE_ABBR":"FL","STATE_FIPS":12,"PLACE_FIPS":1264325,"POPULATION":12521,"POP_CLASS":6,"POP_SQMI":4520.2002,"SQMI":2.76999998,"CAPITAL":" "}},{"type":"Feature","id":39,"geometry":{"type":"Point","coordinates":[-80.597822811999905,28.176898086999977]},"properties":{"FID":39,"NAME":"Satellite Beach","CLASS":"city","STATE_ABBR":"FL","STATE_FIPS":12,"PLACE_FIPS":1264400,"POPULATION":11226,"POP_CLASS":6,"POP_SQMI":3844.5,"SQMI":2.92000008,"CAPITAL":" "}},{"type":"Feature","id":40,"geometry":{"type":"Point","coordinates":[-80.473326819999997,27.817209046000102]},"properties":{"FID":40,"NAME":"Sebastian","CLASS":"city","STATE_ABBR":"FL","STATE_FIPS":12,"PLACE_FIPS":1264825,"POPULATION":25054,"POP_CLASS":6,"POP_SQMI":1571.80005,"SQMI":15.9399996,"CAPITAL":" "}},{"type":"Feature","id":41,"geometry":{"type":"Point","coordinates":[-81.455601740000006,27.492820288000093]},"properties":{"FID":41,"NAME":"Sebring","CLASS":"city","STATE_ABBR":"FL","STATE_FIPS":12,"PLACE_FIPS":1264875,"POPULATION":10729,"POP_CLASS":6,"POP_SQMI":671.400024,"SQMI":15.9799995,"CAPITAL":" "}},{"type":"Feature","id":42,"geometry":{"type":"Point","coordinates":[-82.8076819999999,27.865686042999993]},"properties":{"FID":42,"NAME":"Seminole","CLASS":"city","STATE_ABBR":"FL","STATE_FIPS":12,"PLACE_FIPS":1264975,"POPULATION":19364,"POP_CLASS":6,"POP_SQMI":3639.80005,"SQMI":5.32000017,"CAPITAL":" "}},{"type":"Feature","id":43,"geometry":{"type":"Point","coordinates":[-82.546798280999994,28.404328906999989]},"properties":{"FID":43,"NAME":"Shady Hills","CLASS":"Census Designated Place","STATE_ABBR":"FL","STATE_FIPS":12,"PLACE_FIPS":1265385,"POPULATION":11690,"POP_CLASS":6,"POP_SQMI":401.200012,"SQMI":29.1399994,"CAPITAL":" "}},{"type":"Feature","id":44,"geometry":{"type":"Point","coordinates":[-82.582029666999986,27.461065384000104]},"properties":{"FID":44,"NAME":"South Bradenton","CLASS":"Census Designated Place","STATE_ABBR":"FL","STATE_FIPS":12,"PLACE_FIPS":1267258,"POPULATION":26858,"POP_CLASS":6,"POP_SQMI":5838.7002,"SQMI":4.5999999,"CAPITAL":" "}},{"type":"Feature","id":45,"geometry":{"type":"Point","coordinates":[-81.390157096999999,28.379114369999993]},"properties":{"FID":45,"NAME":"Southchase","CLASS":"Census Designated Place","STATE_ABBR":"FL","STATE_FIPS":12,"PLACE_FIPS":1267270,"POPULATION":16276,"POP_CLASS":6,"POP_SQMI":2352,"SQMI":6.92000008,"CAPITAL":" "}},{"type":"Feature","id":46,"geometry":{"type":"Point","coordinates":[-81.010338279999985,29.164974873000101]},"properties":{"FID":46,"NAME":"South Daytona","CLASS":"city","STATE_ABBR":"FL","STATE_FIPS":12,"PLACE_FIPS":1267325,"POPULATION":12865,"POP_CLASS":6,"POP_SQMI":3439.80005,"SQMI":3.74000001,"CAPITAL":" "}},{"type":"Feature","id":47,"geometry":{"type":"Point","coordinates":[-80.295321318999981,25.706044570000088]},"properties":{"FID":47,"NAME":"South Miami","CLASS":"city","STATE_ABBR":"FL","STATE_FIPS":12,"PLACE_FIPS":1267550,"POPULATION":12026,"POP_CLASS":6,"POP_SQMI":5206.1001,"SQMI":2.30999994,"CAPITAL":" "}},{"type":"Feature","id":48,"geometry":{"type":"Point","coordinates":[-80.386204849999999,25.588571059999989]},"properties":{"FID":48,"NAME":"South Miami Heights","CLASS":"Census Designated Place","STATE_ABBR":"FL","STATE_FIPS":12,"PLACE_FIPS":1267575,"POPULATION":36770,"POP_CLASS":6,"POP_SQMI":7383.5,"SQMI":4.98000002,"CAPITAL":" "}},{"type":"Feature","id":49,"geometry":{"type":"Point","coordinates":[-82.41413750000001,27.037078087000101]},"properties":{"FID":49,"NAME":"South Venice","CLASS":"Census Designated Place","STATE_ABBR":"FL","STATE_FIPS":12,"PLACE_FIPS":1268100,"POPULATION":15619,"POP_CLASS":6,"POP_SQMI":2573.1001,"SQMI":6.07000017,"CAPITAL":" "}},{"type":"Feature","id":50,"geometry":{"type":"Point","coordinates":[-82.627076349999996,28.457838660999997]},"properties":{"FID":50,"NAME":"Spring Hill","CLASS":"Census Designated Place","STATE_ABBR":"FL","STATE_FIPS":12,"PLACE_FIPS":1268350,"POPULATION":113568,"POP_CLASS":8,"POP_SQMI":1822.90002,"SQMI":62.2999992,"CAPITAL":" "}},{"type":"Feature","id":51,"geometry":{"type":"Point","coordinates":[-80.249924000999997,27.18823926000001]},"properties":{"FID":51,"NAME":"Stuart","CLASS":"city","STATE_ABBR":"FL","STATE_FIPS":12,"PLACE_FIPS":1268875,"POPULATION":17425,"POP_CLASS":6,"POP_SQMI":2437.1001,"SQMI":7.1500001,"CAPITAL":" "}},{"type":"Feature","id":52,"geometry":{"type":"Point","coordinates":[-82.356940740000013,27.714972725000095]},"properties":{"FID":52,"NAME":"Sun City Center","CLASS":"Census Designated Place","STATE_ABBR":"FL","STATE_FIPS":12,"PLACE_FIPS":1269250,"POPULATION":30952,"POP_CLASS":6,"POP_SQMI":1864.59998,"SQMI":16.6000004,"CAPITAL":" "}},{"type":"Feature","id":53,"geometry":{"type":"Point","coordinates":[-80.123029501999994,25.939783609000102]},"properties":{"FID":53,"NAME":"Sunny Isles Beach","CLASS":"city","STATE_ABBR":"FL","STATE_FIPS":12,"PLACE_FIPS":1269555,"POPULATION":22342,"POP_CLASS":6,"POP_SQMI":22120.8008,"SQMI":1.00999999,"CAPITAL":" "}},{"type":"Feature","id":54,"geometry":{"type":"Point","coordinates":[-80.296550499999981,26.171778912999997]},"properties":{"FID":54,"NAME":"Sunrise","CLASS":"city","STATE_ABBR":"FL","STATE_FIPS":12,"PLACE_FIPS":1269700,"POPULATION":97335,"POP_CLASS":7,"POP_SQMI":5371.7002,"SQMI":18.1200008,"CAPITAL":" "}},{"type":"Feature","id":55,"geometry":{"type":"Point","coordinates":[-80.353026229999998,25.70607184]},"properties":{"FID":55,"NAME":"Sunset","CLASS":"Census Designated Place","STATE_ABBR":"FL","STATE_FIPS":12,"PLACE_FIPS":1269812,"POPULATION":15912,"POP_CLASS":6,"POP_SQMI":4469.7002,"SQMI":3.55999994,"CAPITAL":" "}},{"type":"Feature","id":56,"geometry":{"type":"Point","coordinates":[-80.378507999999997,25.779261907999995]},"properties":{"FID":56,"NAME":"Sweetwater","CLASS":"city","STATE_ABBR":"FL","STATE_FIPS":12,"PLACE_FIPS":1270345,"POPULATION":19363,"POP_CLASS":6,"POP_SQMI":8418.7002,"SQMI":2.29999995,"CAPITAL":" "}},{"type":"Feature","id":57,"geometry":{"type":"Point","coordinates":[-84.277568901999999,30.434296139000001]},"properties":{"FID":57,"NAME":"Tallahassee","CLASS":"city","STATE_ABBR":"FL","STATE_FIPS":12,"PLACE_FIPS":1270600,"POPULATION":196169,"POP_CLASS":8,"POP_SQMI":1890.19995,"SQMI":103.779999,"CAPITAL":"State"}},{"type":"Feature","id":58,"geometry":{"type":"Point","coordinates":[-80.264450999999994,26.211731165000089]},"properties":{"FID":58,"NAME":"Tamarac","CLASS":"city","STATE_ABBR":"FL","STATE_FIPS":12,"PLACE_FIPS":1270675,"POPULATION":71897,"POP_CLASS":7,"POP_SQMI":5951.7002,"SQMI":12.0799999,"CAPITAL":" "}},{"type":"Feature","id":59,"geometry":{"type":"Point","coordinates":[-80.401484640999996,25.75560072700009]},"properties":{"FID":59,"NAME":"Tamiami","CLASS":"Census Designated Place","STATE_ABBR":"FL","STATE_FIPS":12,"PLACE_FIPS":1270700,"POPULATION":54212,"POP_CLASS":7,"POP_SQMI":7296.3999,"SQMI":7.42999983,"CAPITAL":" "}},{"type":"Feature","id":60,"geometry":{"type":"Point","coordinates":[-82.455712449000004,27.949506155999995]},"properties":{"FID":60,"NAME":"Tampa","CLASS":"city","STATE_ABBR":"FL","STATE_FIPS":12,"PLACE_FIPS":1271000,"POPULATION":384959,"POP_CLASS":9,"POP_SQMI":3288.80005,"SQMI":117.050003,"CAPITAL":" "}},{"type":"Feature","id":61,"geometry":{"type":"Point","coordinates":[-82.739031749999995,28.130398163999999]},"properties":{"FID":61,"NAME":"Tarpon Springs","CLASS":"city","STATE_ABBR":"FL","STATE_FIPS":12,"PLACE_FIPS":1271150,"POPULATION":25117,"POP_CLASS":6,"POP_SQMI":2683.3999,"SQMI":9.35999966,"CAPITAL":" "}},{"type":"Feature","id":62,"geometry":{"type":"Point","coordinates":[-81.729559011999996,28.805949285000079]},"properties":{"FID":62,"NAME":"Tavares","CLASS":"city","STATE_ABBR":"FL","STATE_FIPS":12,"PLACE_FIPS":1271225,"POPULATION":19003,"POP_CLASS":6,"POP_SQMI":1379,"SQMI":13.7799997,"CAPITAL":" "}},{"type":"Feature","id":63,"geometry":{"type":"Point","coordinates":[-82.378181280999996,28.043946728000002]},"properties":{"FID":63,"NAME":"Temple Terrace","CLASS":"city","STATE_ABBR":"FL","STATE_FIPS":12,"PLACE_FIPS":1271400,"POPULATION":26690,"POP_CLASS":6,"POP_SQMI":3493.5,"SQMI":7.63999987,"CAPITAL":" "}},{"type":"Feature","id":64,"geometry":{"type":"Point","coordinates":[-80.28119974899991,26.770948705000006]},"properties":{"FID":64,"NAME":"The Acreage","CLASS":"Census Designated Place","STATE_ABBR":"FL","STATE_FIPS":12,"PLACE_FIPS":1271564,"POPULATION":41654,"POP_CLASS":6,"POP_SQMI":1215.09998,"SQMI":34.2799988,"CAPITAL":" "}},{"type":"Feature","id":65,"geometry":{"type":"Point","coordinates":[-80.401807478999999,25.670799110000093]},"properties":{"FID":65,"NAME":"The Crossings","CLASS":"Census Designated Place","STATE_ABBR":"FL","STATE_FIPS":12,"PLACE_FIPS":1271567,"POPULATION":23276,"POP_CLASS":6,"POP_SQMI":6465.6001,"SQMI":3.5999999,"CAPITAL":" "}},{"type":"Feature","id":66,"geometry":{"type":"Point","coordinates":[-80.448283282000006,25.669967742000001]},"properties":{"FID":66,"NAME":"The Hammocks","CLASS":"Census Designated Place","STATE_ABBR":"FL","STATE_FIPS":12,"PLACE_FIPS":1271569,"POPULATION":59480,"POP_CLASS":7,"POP_SQMI":7343.2002,"SQMI":8.10000038,"CAPITAL":" "}},{"type":"Feature","id":67,"geometry":{"type":"Point","coordinates":[-81.988540001000004,28.904636122000092]},"properties":{"FID":67,"NAME":"The Villages","CLASS":"Census Designated Place","STATE_ABBR":"FL","STATE_FIPS":12,"PLACE_FIPS":1271625,"POPULATION":79077,"POP_CLASS":7,"POP_SQMI":2329.19995,"SQMI":33.9500008,"CAPITAL":" "}},{"type":"Feature","id":68,"geometry":{"type":"Point","coordinates":[-82.291016137,28.046454547000099]},"properties":{"FID":68,"NAME":"Thonotosassa","CLASS":"Census Designated Place","STATE_ABBR":"FL","STATE_FIPS":12,"PLACE_FIPS":1271725,"POPULATION":15238,"POP_CLASS":6,"POP_SQMI":537.900024,"SQMI":28.3299999,"CAPITAL":" "}},{"type":"Feature","id":69,"geometry":{"type":"Point","coordinates":[-80.400072909999906,25.641490059999988]},"properties":{"FID":69,"NAME":"Three Lakes","CLASS":"Census Designated Place","STATE_ABBR":"FL","STATE_FIPS":12,"PLACE_FIPS":1271741,"POPULATION":16540,"POP_CLASS":6,"POP_SQMI":4285,"SQMI":3.8599999,"CAPITAL":" "}},{"type":"Feature","id":70,"geometry":{"type":"Point","coordinates":[-80.809146896000001,28.607116705000095]},"properties":{"FID":70,"NAME":"Titusville","CLASS":"city","STATE_ABBR":"FL","STATE_FIPS":12,"PLACE_FIPS":1271900,"POPULATION":48789,"POP_CLASS":6,"POP_SQMI":1660.59998,"SQMI":29.3799992,"CAPITAL":" "}},{"type":"Feature","id":71,"geometry":{"type":"Point","coordinates":[-82.575473030999902,28.009430402000099]},"properties":{"FID":71,"NAME":"Town 'n' Country","CLASS":"Census Designated Place","STATE_ABBR":"FL","STATE_FIPS":12,"PLACE_FIPS":1272145,"POPULATION":85951,"POP_CLASS":7,"POP_SQMI":3712.80005,"SQMI":23.1499996,"CAPITAL":" "}},{"type":"Feature","id":72,"geometry":{"type":"Point","coordinates":[-82.658396067999902,28.180857812999999]},"properties":{"FID":72,"NAME":"Trinity","CLASS":"Census Designated Place","STATE_ABBR":"FL","STATE_FIPS":12,"PLACE_FIPS":1272442,"POPULATION":11924,"POP_CLASS":6,"POP_SQMI":2620.69995,"SQMI":4.55000019,"CAPITAL":" "}},{"type":"Feature","id":73,"geometry":{"type":"Point","coordinates":[-82.433292170000001,28.077067515000085]},"properties":{"FID":73,"NAME":"University","CLASS":"Census Designated Place","STATE_ABBR":"FL","STATE_FIPS":12,"PLACE_FIPS":1273163,"POPULATION":50893,"POP_CLASS":7,"POP_SQMI":7746.2998,"SQMI":6.57000017,"CAPITAL":" "}},{"type":"Feature","id":74,"geometry":{"type":"Point","coordinates":[-81.199050724000003,28.590018273999998]},"properties":{"FID":74,"NAME":"University","CLASS":"Census Designated Place","STATE_ABBR":"FL","STATE_FIPS":12,"PLACE_FIPS":1273172,"POPULATION":45284,"POP_CLASS":6,"POP_SQMI":4817.3999,"SQMI":9.39999962,"CAPITAL":" "}},{"type":"Feature","id":75,"geometry":{"type":"Point","coordinates":[-85.771654499999997,30.175467203999997]},"properties":{"FID":75,"NAME":"Upper Grand Lagoon","CLASS":"Census Designated Place","STATE_ABBR":"FL","STATE_FIPS":12,"PLACE_FIPS":1273312,"POPULATION":15778,"POP_CLASS":6,"POP_SQMI":1943.09998,"SQMI":8.11999989,"CAPITAL":" "}},{"type":"Feature","id":76,"geometry":{"type":"Point","coordinates":[-82.236865249999894,27.927168050999995]},"properties":{"FID":76,"NAME":"Valrico","CLASS":"Census Designated Place","STATE_ABBR":"FL","STATE_FIPS":12,"PLACE_FIPS":1273700,"POPULATION":37895,"POP_CLASS":6,"POP_SQMI":2664.8999,"SQMI":14.2200003,"CAPITAL":" "}},{"type":"Feature","id":77,"geometry":{"type":"Point","coordinates":[-82.448704796000001,27.099213974000101]},"properties":{"FID":77,"NAME":"Venice","CLASS":"city","STATE_ABBR":"FL","STATE_FIPS":12,"PLACE_FIPS":1273900,"POPULATION":25463,"POP_CLASS":6,"POP_SQMI":1487.30005,"SQMI":17.1200008,"CAPITAL":" "}},{"type":"Feature","id":78,"geometry":{"type":"Point","coordinates":[-80.408697013999998,27.646760614000101]},"properties":{"FID":78,"NAME":"Vero Beach","CLASS":"city","STATE_ABBR":"FL","STATE_FIPS":12,"PLACE_FIPS":1274150,"POPULATION":16354,"POP_CLASS":6,"POP_SQMI":1419.59998,"SQMI":11.5200005,"CAPITAL":" "}},{"type":"Feature","id":79,"geometry":{"type":"Point","coordinates":[-80.415565877999896,27.616348094999999]},"properties":{"FID":79,"NAME":"Vero Beach South","CLASS":"Census Designated Place","STATE_ABBR":"FL","STATE_FIPS":12,"PLACE_FIPS":1274200,"POPULATION":28020,"POP_CLASS":6,"POP_SQMI":2376.6001,"SQMI":11.79,"CAPITAL":" "}},{"type":"Feature","id":80,"geometry":{"type":"Point","coordinates":[-80.714935136000008,28.260915770000089]},"properties":{"FID":80,"NAME":"Viera East","CLASS":"Census Designated Place","STATE_ABBR":"FL","STATE_FIPS":12,"PLACE_FIPS":1274368,"POPULATION":11687,"POP_CLASS":6,"POP_SQMI":2256.19995,"SQMI":5.17999983,"CAPITAL":" "}},{"type":"Feature","id":81,"geometry":{"type":"Point","coordinates":[-81.867803781999996,26.550467180000098]},"properties":{"FID":81,"NAME":"Villas","CLASS":"Census Designated Place","STATE_ABBR":"FL","STATE_FIPS":12,"PLACE_FIPS":1274512,"POPULATION":12687,"POP_CLASS":6,"POP_SQMI":2615.8999,"SQMI":4.8499999,"CAPITAL":" "}},{"type":"Feature","id":82,"geometry":{"type":"Point","coordinates":[-87.295775430999996,30.384004489000102]},"properties":{"FID":82,"NAME":"Warrington","CLASS":"Census Designated Place","STATE_ABBR":"FL","STATE_FIPS":12,"PLACE_FIPS":1275200,"POPULATION":15218,"POP_CLASS":6,"POP_SQMI":2186.5,"SQMI":6.96000004,"CAPITAL":" "}},{"type":"Feature","id":83,"geometry":{"type":"Point","coordinates":[-81.424949862999895,28.698441822000085]},"properties":{"FID":83,"NAME":"Wekiwa Springs","CLASS":"Census Designated Place","STATE_ABBR":"FL","STATE_FIPS":12,"PLACE_FIPS":1275725,"POPULATION":23428,"POP_CLASS":6,"POP_SQMI":2552.1001,"SQMI":9.18000031,"CAPITAL":" "}},{"type":"Feature","id":84,"geometry":{"type":"Point","coordinates":[-80.270749343000006,26.64640356799999]},"properties":{"FID":84,"NAME":"Wellington","CLASS":"village","STATE_ABBR":"FL","STATE_FIPS":12,"PLACE_FIPS":1275812,"POPULATION":61637,"POP_CLASS":7,"POP_SQMI":1357.30005,"SQMI":45.4099998,"CAPITAL":" "}},{"type":"Feature","id":85,"geometry":{"type":"Point","coordinates":[-82.326685181000016,28.240144155000092]},"properties":{"FID":85,"NAME":"Wesley Chapel","CLASS":"Census Designated Place","STATE_ABBR":"FL","STATE_FIPS":12,"PLACE_FIPS":1275875,"POPULATION":64866,"POP_CLASS":7,"POP_SQMI":1472.59998,"SQMI":44.0499992,"CAPITAL":" "}},{"type":"Feature","id":86,"geometry":{"type":"Point","coordinates":[-82.611007122999993,28.059677851999997]},"properties":{"FID":86,"NAME":"Westchase","CLASS":"Census Designated Place","STATE_ABBR":"FL","STATE_FIPS":12,"PLACE_FIPS":1276062,"POPULATION":25952,"POP_CLASS":6,"POP_SQMI":2418.6001,"SQMI":10.7299995,"CAPITAL":" "}},{"type":"Feature","id":87,"geometry":{"type":"Point","coordinates":[-80.335845898999906,25.747402803000092]},"properties":{"FID":87,"NAME":"Westchester","CLASS":"Census Designated Place","STATE_ABBR":"FL","STATE_FIPS":12,"PLACE_FIPS":1276075,"POPULATION":56384,"POP_CLASS":7,"POP_SQMI":6952.3999,"SQMI":8.10999966,"CAPITAL":" "}},{"type":"Feature","id":88,"geometry":{"type":"Point","coordinates":[-82.738201555999993,27.819855257]},"properties":{"FID":88,"NAME":"West Lealman","CLASS":"Census Designated Place","STATE_ABBR":"FL","STATE_FIPS":12,"PLACE_FIPS":1276481,"POPULATION":16438,"POP_CLASS":6,"POP_SQMI":5120.8999,"SQMI":3.21000004,"CAPITAL":" "}},{"type":"Feature","id":89,"geometry":{"type":"Point","coordinates":[-80.236769453999997,25.857053996000005]},"properties":{"FID":89,"NAME":"West Little River","CLASS":"Census Designated Place","STATE_ABBR":"FL","STATE_FIPS":12,"PLACE_FIPS":1276487,"POPULATION":34128,"POP_CLASS":6,"POP_SQMI":7323.6001,"SQMI":4.65999985,"CAPITAL":" "}},{"type":"Feature","id":90,"geometry":{"type":"Point","coordinates":[-80.667915241999907,28.070989419000092]},"properties":{"FID":90,"NAME":"West Melbourne","CLASS":"city","STATE_ABBR":"FL","STATE_FIPS":12,"PLACE_FIPS":1276500,"POPULATION":25924,"POP_CLASS":6,"POP_SQMI":2387.1001,"SQMI":10.8599997,"CAPITAL":" "}},{"type":"Feature","id":91,"geometry":{"type":"Point","coordinates":[-80.370003982999904,26.086409972000098]},"properties":{"FID":91,"NAME":"Weston","CLASS":"city","STATE_ABBR":"FL","STATE_FIPS":12,"PLACE_FIPS":1276582,"POPULATION":68107,"POP_CLASS":7,"POP_SQMI":2609.5,"SQMI":26.1000004,"CAPITAL":" "}},{"type":"Feature","id":92,"geometry":{"type":"Point","coordinates":[-80.054509243000012,26.715510888000001]},"properties":{"FID":92,"NAME":"West Palm Beach","CLASS":"city","STATE_ABBR":"FL","STATE_FIPS":12,"PLACE_FIPS":1276600,"POPULATION":117415,"POP_CLASS":8,"POP_SQMI":2069.69995,"SQMI":56.7299995,"CAPITAL":" "}},{"type":"Feature","id":93,"geometry":{"type":"Point","coordinates":[-80.194068000000001,25.991625997000003]},"properties":{"FID":93,"NAME":"West Park","CLASS":"city","STATE_ABBR":"FL","STATE_FIPS":12,"PLACE_FIPS":1276658,"POPULATION":15130,"POP_CLASS":6,"POP_SQMI":6694.7002,"SQMI":2.25999999,"CAPITAL":" "}},{"type":"Feature","id":94,"geometry":{"type":"Point","coordinates":[-87.267971689999996,30.426510610000001]},"properties":{"FID":94,"NAME":"West Pensacola","CLASS":"Census Designated Place","STATE_ABBR":"FL","STATE_FIPS":12,"PLACE_FIPS":1276675,"POPULATION":21019,"POP_CLASS":6,"POP_SQMI":2903.19995,"SQMI":7.23999977,"CAPITAL":" "}},{"type":"Feature","id":95,"geometry":{"type":"Point","coordinates":[-80.371652375999986,25.723748417000007]},"properties":{"FID":95,"NAME":"Westwood Lakes","CLASS":"Census Designated Place","STATE_ABBR":"FL","STATE_FIPS":12,"PLACE_FIPS":1277075,"POPULATION":11373,"POP_CLASS":6,"POP_SQMI":6283.3999,"SQMI":1.80999994,"CAPITAL":" "}},{"type":"Feature","id":96,"geometry":{"type":"Point","coordinates":[-80.139383357999989,26.159269831000096]},"properties":{"FID":96,"NAME":"Wilton Manors","CLASS":"city","STATE_ABBR":"FL","STATE_FIPS":12,"PLACE_FIPS":1278000,"POPULATION":11426,"POP_CLASS":6,"POP_SQMI":5800,"SQMI":1.97000003,"CAPITAL":" "}},{"type":"Feature","id":97,"geometry":{"type":"Point","coordinates":[-81.585709194999879,28.566000867000085]},"properties":{"FID":97,"NAME":"Winter Garden","CLASS":"city","STATE_ABBR":"FL","STATE_FIPS":12,"PLACE_FIPS":1278250,"POPULATION":46964,"POP_CLASS":6,"POP_SQMI":2619.30005,"SQMI":17.9300003,"CAPITAL":" "}},{"type":"Feature","id":98,"geometry":{"type":"Point","coordinates":[-81.726913844999999,28.020711297999995]},"properties":{"FID":98,"NAME":"Winter Haven","CLASS":"city","STATE_ABBR":"FL","STATE_FIPS":12,"PLACE_FIPS":1278275,"POPULATION":49219,"POP_CLASS":6,"POP_SQMI":1196.40002,"SQMI":41.1399994,"CAPITAL":" "}},{"type":"Feature","id":99,"geometry":{"type":"Point","coordinates":[-81.343629361999902,28.598599444999991]},"properties":{"FID":99,"NAME":"Winter Park","CLASS":"city","STATE_ABBR":"FL","STATE_FIPS":12,"PLACE_FIPS":1278300,"POPULATION":29795,"POP_CLASS":6,"POP_SQMI":2870.3999,"SQMI":10.3800001,"CAPITAL":" "}},{"type":"Feature","id":100,"geometry":{"type":"Point","coordinates":[-81.270825830999996,28.689143364000099]},"properties":{"FID":100,"NAME":"Winter Springs","CLASS":"city","STATE_ABBR":"FL","STATE_FIPS":12,"PLACE_FIPS":1278325,"POPULATION":38342,"POP_CLASS":6,"POP_SQMI":2557.80005,"SQMI":14.9899998,"CAPITAL":" "}},{"type":"Feature","id":101,"geometry":{"type":"Point","coordinates":[-81.489832827000001,29.965318993]},"properties":{"FID":101,"NAME":"World Golf Village","CLASS":"Census Designated Place","STATE_ABBR":"FL","STATE_FIPS":12,"PLACE_FIPS":1278740,"POPULATION":22117,"POP_CLASS":6,"POP_SQMI":806,"SQMI":27.4400005,"CAPITAL":" "}},{"type":"Feature","id":102,"geometry":{"type":"Point","coordinates":[-86.642015518999997,30.444571816000103]},"properties":{"FID":102,"NAME":"Wright","CLASS":"Census Designated Place","STATE_ABBR":"FL","STATE_FIPS":12,"PLACE_FIPS":1278800,"POPULATION":26277,"POP_CLASS":6,"POP_SQMI":4743.1001,"SQMI":5.53999996,"CAPITAL":" "}},{"type":"Feature","id":103,"geometry":{"type":"Point","coordinates":[-81.604588383000007,30.636047212000108]},"properties":{"FID":103,"NAME":"Yulee","CLASS":"Census Designated Place","STATE_ABBR":"FL","STATE_FIPS":12,"PLACE_FIPS":1279175,"POPULATION":14195,"POP_CLASS":6,"POP_SQMI":612.400024,"SQMI":23.1800003,"CAPITAL":" "}},{"type":"Feature","id":104,"geometry":{"type":"Point","coordinates":[-82.179781993999882,28.240019808000092]},"properties":{"FID":104,"NAME":"Zephyrhills","CLASS":"city","STATE_ABBR":"FL","STATE_FIPS":12,"PLACE_FIPS":1279225,"POPULATION":17194,"POP_CLASS":6,"POP_SQMI":1798.5,"SQMI":9.56000042,"CAPITAL":" "}},{"type":"Feature","id":105,"geometry":{"type":"Point","coordinates":[-84.668982657999905,34.056300242000091]},"properties":{"FID":105,"NAME":"Acworth","CLASS":"city","STATE_ABBR":"GA","STATE_FIPS":13,"PLACE_FIPS":1300408,"POPULATION":22440,"POP_CLASS":6,"POP_SQMI":2308.6001,"SQMI":9.72000027,"CAPITAL":" "}},{"type":"Feature","id":106,"geometry":{"type":"Point","coordinates":[-84.176255931,31.577563152999986]},"properties":{"FID":106,"NAME":"Albany","CLASS":"city","STATE_ABBR":"GA","STATE_FIPS":13,"PLACE_FIPS":1301052,"POPULATION":69647,"POP_CLASS":7,"POP_SQMI":1247.5,"SQMI":55.8300018,"CAPITAL":" "}},{"type":"Feature","id":107,"geometry":{"type":"Point","coordinates":[-84.273727495999907,34.069930869000096]},"properties":{"FID":107,"NAME":"Alpharetta","CLASS":"city","STATE_ABBR":"GA","STATE_FIPS":13,"PLACE_FIPS":1301696,"POPULATION":65818,"POP_CLASS":7,"POP_SQMI":2413.6001,"SQMI":27.2700005,"CAPITAL":" "}},{"type":"Feature","id":108,"geometry":{"type":"Point","coordinates":[-84.224775527000006,32.073623189999992]},"properties":{"FID":108,"NAME":"Americus","CLASS":"city","STATE_ABBR":"GA","STATE_FIPS":13,"PLACE_FIPS":1302116,"POPULATION":16230,"POP_CLASS":6,"POP_SQMI":1402.80005,"SQMI":11.5699997,"CAPITAL":" "}},{"type":"Feature","id":109,"geometry":{"type":"Point","coordinates":[-83.368933792000007,33.950822915000096]},"properties":{"FID":109,"NAME":"Athens-Clarke County unified government (balance)","CLASS":"unknown","STATE_ABBR":"GA","STATE_FIPS":13,"PLACE_FIPS":1303440,"POPULATION":127315,"POP_CLASS":8,"POP_SQMI":1078,"SQMI":118.099998,"CAPITAL":" "}},{"type":"Feature","id":110,"geometry":{"type":"Point","coordinates":[-84.394919156,33.748638590999995]},"properties":{"FID":110,"NAME":"Atlanta","CLASS":"city","STATE_ABBR":"GA","STATE_FIPS":13,"PLACE_FIPS":1304000,"POPULATION":498715,"POP_CLASS":9,"POP_SQMI":3658.69995,"SQMI":136.309998,"CAPITAL":"State"}},{"type":"Feature","id":111,"geometry":{"type":"Point","coordinates":[-81.979564663000005,33.475340906000007]},"properties":{"FID":111,"NAME":"Augusta-Richmond County consolidated government (balance)","CLASS":"unknown","STATE_ABBR":"GA","STATE_FIPS":13,"PLACE_FIPS":1304204,"POPULATION":202081,"POP_CLASS":8,"POP_SQMI":659.400024,"SQMI":306.450012,"CAPITAL":" "}},{"type":"Feature","id":112,"geometry":{"type":"Point","coordinates":[-84.572157839999988,30.904546260000089]},"properties":{"FID":112,"NAME":"Bainbridge","CLASS":"city","STATE_ABBR":"GA","STATE_FIPS":13,"PLACE_FIPS":1304896,"POPULATION":14468,"POP_CLASS":6,"POP_SQMI":688.599976,"SQMI":21.0100002,"CAPITAL":" "}},{"type":"Feature","id":113,"geometry":{"type":"Point","coordinates":[-84.260060994,33.748925918000097]},"properties":{"FID":113,"NAME":"Belvedere Park","CLASS":"Census Designated Place","STATE_ABBR":"GA","STATE_FIPS":13,"PLACE_FIPS":1306884,"POPULATION":15113,"POP_CLASS":6,"POP_SQMI":3084.30005,"SQMI":4.9000001,"CAPITAL":" "}},{"type":"Feature","id":114,"geometry":{"type":"Point","coordinates":[-81.487769999999998,31.155929358000009]},"properties":{"FID":114,"NAME":"Brunswick","CLASS":"city","STATE_ABBR":"GA","STATE_FIPS":13,"PLACE_FIPS":1311560,"POPULATION":15210,"POP_CLASS":6,"POP_SQMI":873.099976,"SQMI":17.4200001,"CAPITAL":" "}},{"type":"Feature","id":115,"geometry":{"type":"Point","coordinates":[-83.9916312349999,34.1189868230001]},"properties":{"FID":115,"NAME":"Buford","CLASS":"city","STATE_ABBR":"GA","STATE_FIPS":13,"PLACE_FIPS":1311784,"POPULATION":17144,"POP_CLASS":6,"POP_SQMI":940.400024,"SQMI":18.2299995,"CAPITAL":" "}},{"type":"Feature","id":116,"geometry":{"type":"Point","coordinates":[-84.947324026000004,34.502045388999996]},"properties":{"FID":116,"NAME":"Calhoun","CLASS":"city","STATE_ABBR":"GA","STATE_FIPS":13,"PLACE_FIPS":1312456,"POPULATION":16949,"POP_CLASS":6,"POP_SQMI":1052.69995,"SQMI":16.1000004,"CAPITAL":" "}},{"type":"Feature","id":117,"geometry":{"type":"Point","coordinates":[-84.27245239299998,33.72672335499999]},"properties":{"FID":117,"NAME":"Candler-McAfee","CLASS":"Census Designated Place","STATE_ABBR":"GA","STATE_FIPS":13,"PLACE_FIPS":1312834,"POPULATION":22468,"POP_CLASS":6,"POP_SQMI":3218.8999,"SQMI":6.98000002,"CAPITAL":" "}},{"type":"Feature","id":118,"geometry":{"type":"Point","coordinates":[-84.490410107999892,34.246931236000101]},"properties":{"FID":118,"NAME":"Canton","CLASS":"city","STATE_ABBR":"GA","STATE_FIPS":13,"PLACE_FIPS":1312988,"POPULATION":32973,"POP_CLASS":6,"POP_SQMI":1735.40002,"SQMI":19,"CAPITAL":" "}},{"type":"Feature","id":119,"geometry":{"type":"Point","coordinates":[-85.083790903999997,33.582007184000091]},"properties":{"FID":119,"NAME":"Carrollton","CLASS":"city","STATE_ABBR":"GA","STATE_FIPS":13,"PLACE_FIPS":1313492,"POPULATION":26738,"POP_CLASS":6,"POP_SQMI":1164,"SQMI":22.9699993,"CAPITAL":" "}},{"type":"Feature","id":120,"geometry":{"type":"Point","coordinates":[-84.800539020000002,34.163430176000105]},"properties":{"FID":120,"NAME":"Cartersville","CLASS":"city","STATE_ABBR":"GA","STATE_FIPS":13,"PLACE_FIPS":1313688,"POPULATION":23187,"POP_CLASS":6,"POP_SQMI":806.799988,"SQMI":28.7399998,"CAPITAL":" "}},{"type":"Feature","id":121,"geometry":{"type":"Point","coordinates":[-84.302431513000002,33.896085154999994]},"properties":{"FID":121,"NAME":"Chamblee","CLASS":"city","STATE_ABBR":"GA","STATE_FIPS":13,"PLACE_FIPS":1315172,"POPULATION":30164,"POP_CLASS":6,"POP_SQMI":3917.3999,"SQMI":7.69999981,"CAPITAL":" "}},{"type":"Feature","id":122,"geometry":{"type":"Point","coordinates":[-84.459720853999997,33.638446639000101]},"properties":{"FID":122,"NAME":"College Park","CLASS":"city","STATE_ABBR":"GA","STATE_FIPS":13,"PLACE_FIPS":1317776,"POPULATION":13930,"POP_CLASS":6,"POP_SQMI":1251.59998,"SQMI":11.1300001,"CAPITAL":" "}},{"type":"Feature","id":123,"geometry":{"type":"Point","coordinates":[-84.977070071999918,32.465503705999993]},"properties":{"FID":123,"NAME":"Columbus","CLASS":"city","STATE_ABBR":"GA","STATE_FIPS":13,"PLACE_FIPS":1319000,"POPULATION":206922,"POP_CLASS":8,"POP_SQMI":936.299988,"SQMI":221.009995,"CAPITAL":" "}},{"type":"Feature","id":124,"geometry":{"type":"Point","coordinates":[-84.026884875000007,33.660847424000096]},"properties":{"FID":124,"NAME":"Conyers","CLASS":"city","STATE_ABBR":"GA","STATE_FIPS":13,"PLACE_FIPS":1319336,"POPULATION":17305,"POP_CLASS":6,"POP_SQMI":1459.09998,"SQMI":11.8599997,"CAPITAL":" "}},{"type":"Feature","id":125,"geometry":{"type":"Point","coordinates":[-83.77425556,31.961021889999998]},"properties":{"FID":125,"NAME":"Cordele","CLASS":"city","STATE_ABBR":"GA","STATE_FIPS":13,"PLACE_FIPS":1319616,"POPULATION":10220,"POP_CLASS":6,"POP_SQMI":1000,"SQMI":10.2200003,"CAPITAL":" "}},{"type":"Feature","id":126,"geometry":{"type":"Point","coordinates":[-83.84884550000001,33.598416338999996]},"properties":{"FID":126,"NAME":"Covington","CLASS":"city","STATE_ABBR":"GA","STATE_FIPS":13,"PLACE_FIPS":1320064,"POPULATION":14192,"POP_CLASS":6,"POP_SQMI":890.299988,"SQMI":15.9399996,"CAPITAL":" "}},{"type":"Feature","id":127,"geometry":{"type":"Point","coordinates":[-84.772696858000003,32.305735092000091]},"properties":{"FID":127,"NAME":"Cusseta-Chattahoochee County","CLASS":"unknown","STATE_ABBR":"GA","STATE_FIPS":13,"PLACE_FIPS":1321017,"POPULATION":9565,"POP_CLASS":5,"POP_SQMI":38.0999985,"SQMI":251.160004,"CAPITAL":" "}},{"type":"Feature","id":128,"geometry":{"type":"Point","coordinates":[-84.841673181000004,33.9155591970001]},"properties":{"FID":128,"NAME":"Dallas","CLASS":"city","STATE_ABBR":"GA","STATE_FIPS":13,"PLACE_FIPS":1321324,"POPULATION":14042,"POP_CLASS":6,"POP_SQMI":1892.5,"SQMI":7.42000008,"CAPITAL":" "}},{"type":"Feature","id":129,"geometry":{"type":"Point","coordinates":[-84.976277868000011,34.770503376000093]},"properties":{"FID":129,"NAME":"Dalton","CLASS":"city","STATE_ABBR":"GA","STATE_FIPS":13,"PLACE_FIPS":1321380,"POPULATION":34417,"POP_CLASS":6,"POP_SQMI":1626.5,"SQMI":21.1599998,"CAPITAL":" "}},{"type":"Feature","id":130,"geometry":{"type":"Point","coordinates":[-84.296706232000005,33.771192296999985]},"properties":{"FID":130,"NAME":"Decatur","CLASS":"city","STATE_ABBR":"GA","STATE_FIPS":13,"PLACE_FIPS":1322052,"POPULATION":24928,"POP_CLASS":6,"POP_SQMI":5419.1001,"SQMI":4.5999999,"CAPITAL":" "}},{"type":"Feature","id":131,"geometry":{"type":"Point","coordinates":[-82.854320630000004,31.5073284200001]},"properties":{"FID":131,"NAME":"Douglas","CLASS":"city","STATE_ABBR":"GA","STATE_FIPS":13,"PLACE_FIPS":1323872,"POPULATION":11722,"POP_CLASS":6,"POP_SQMI":799,"SQMI":14.6700001,"CAPITAL":" "}},{"type":"Feature","id":132,"geometry":{"type":"Point","coordinates":[-84.748479312000001,33.747712433000103]},"properties":{"FID":132,"NAME":"Douglasville","CLASS":"city","STATE_ABBR":"GA","STATE_FIPS":13,"PLACE_FIPS":1323900,"POPULATION":34650,"POP_CLASS":6,"POP_SQMI":1509.80005,"SQMI":22.9500008,"CAPITAL":" "}},{"type":"Feature","id":133,"geometry":{"type":"Point","coordinates":[-84.326045030000017,33.787576776999998]},"properties":{"FID":133,"NAME":"Druid Hills","CLASS":"Census Designated Place","STATE_ABBR":"GA","STATE_FIPS":13,"PLACE_FIPS":1324264,"POPULATION":9429,"POP_CLASS":5,"POP_SQMI":3164.1001,"SQMI":2.98000002,"CAPITAL":" "}},{"type":"Feature","id":134,"geometry":{"type":"Point","coordinates":[-82.928046233999993,32.535978931999999]},"properties":{"FID":134,"NAME":"Dublin","CLASS":"city","STATE_ABBR":"GA","STATE_FIPS":13,"PLACE_FIPS":1324376,"POPULATION":16074,"POP_CLASS":6,"POP_SQMI":1003.40002,"SQMI":16.0200005,"CAPITAL":" "}},{"type":"Feature","id":135,"geometry":{"type":"Point","coordinates":[-84.149369511000003,34.005329180999986]},"properties":{"FID":135,"NAME":"Duluth","CLASS":"city","STATE_ABBR":"GA","STATE_FIPS":13,"PLACE_FIPS":1324600,"POPULATION":31873,"POP_CLASS":6,"POP_SQMI":3070.6001,"SQMI":10.3800001,"CAPITAL":" "}},{"type":"Feature","id":136,"geometry":{"type":"Point","coordinates":[-84.312345819000001,33.94183868199999]},"properties":{"FID":136,"NAME":"Dunwoody","CLASS":"city","STATE_ABBR":"GA","STATE_FIPS":13,"PLACE_FIPS":1324768,"POPULATION":51683,"POP_CLASS":7,"POP_SQMI":3900.6001,"SQMI":13.25,"CAPITAL":" "}},{"type":"Feature","id":137,"geometry":{"type":"Point","coordinates":[-84.443707168999893,33.679982213000088]},"properties":{"FID":137,"NAME":"East Point","CLASS":"city","STATE_ABBR":"GA","STATE_FIPS":13,"PLACE_FIPS":1325720,"POPULATION":38358,"POP_CLASS":6,"POP_SQMI":2609.3999,"SQMI":14.6999998,"CAPITAL":" "}},{"type":"Feature","id":138,"geometry":{"type":"Point","coordinates":[-82.135071814,33.561938032000093]},"properties":{"FID":138,"NAME":"Evans","CLASS":"Census Designated Place","STATE_ABBR":"GA","STATE_FIPS":13,"PLACE_FIPS":1328044,"POPULATION":34536,"POP_CLASS":6,"POP_SQMI":1300.80005,"SQMI":26.5499992,"CAPITAL":" "}},{"type":"Feature","id":139,"geometry":{"type":"Point","coordinates":[-84.591395039999995,33.549704013000103]},"properties":{"FID":139,"NAME":"Fairburn","CLASS":"city","STATE_ABBR":"GA","STATE_FIPS":13,"PLACE_FIPS":1328380,"POPULATION":16483,"POP_CLASS":6,"POP_SQMI":962.799988,"SQMI":17.1200008,"CAPITAL":" "}},{"type":"Feature","id":140,"geometry":{"type":"Point","coordinates":[-84.463430079999995,33.447653850000094]},"properties":{"FID":140,"NAME":"Fayetteville","CLASS":"city","STATE_ABBR":"GA","STATE_FIPS":13,"PLACE_FIPS":1328968,"POPULATION":18957,"POP_CLASS":6,"POP_SQMI":1438.30005,"SQMI":13.1800003,"CAPITAL":" "}},{"type":"Feature","id":141,"geometry":{"type":"Point","coordinates":[-84.359237519000004,33.621063981000091]},"properties":{"FID":141,"NAME":"Forest Park","CLASS":"city","STATE_ABBR":"GA","STATE_FIPS":13,"PLACE_FIPS":1330536,"POPULATION":19932,"POP_CLASS":6,"POP_SQMI":2127.19995,"SQMI":9.36999989,"CAPITAL":" "}},{"type":"Feature","id":142,"geometry":{"type":"Point","coordinates":[-83.823953930000002,34.296115746000098]},"properties":{"FID":142,"NAME":"Gainesville","CLASS":"city","STATE_ABBR":"GA","STATE_FIPS":13,"PLACE_FIPS":1331908,"POPULATION":42296,"POP_CLASS":6,"POP_SQMI":1197.80005,"SQMI":35.3100014,"CAPITAL":" "}},{"type":"Feature","id":143,"geometry":{"type":"Point","coordinates":[-81.204679749999997,31.989974577000105]},"properties":{"FID":143,"NAME":"Georgetown","CLASS":"Census Designated Place","STATE_ABBR":"GA","STATE_FIPS":13,"PLACE_FIPS":1332482,"POPULATION":11916,"POP_CLASS":6,"POP_SQMI":1392.09998,"SQMI":8.56000042,"CAPITAL":" "}},{"type":"Feature","id":144,"geometry":{"type":"Point","coordinates":[-84.274502404000003,33.24179196099999]},"properties":{"FID":144,"NAME":"Griffin","CLASS":"city","STATE_ABBR":"GA","STATE_FIPS":13,"PLACE_FIPS":1335324,"POPULATION":23478,"POP_CLASS":6,"POP_SQMI":1662.69995,"SQMI":14.1199999,"CAPITAL":" "}},{"type":"Feature","id":145,"geometry":{"type":"Point","coordinates":[-82.206525647999996,33.449495464999998]},"properties":{"FID":145,"NAME":"Grovetown","CLASS":"city","STATE_ABBR":"GA","STATE_FIPS":13,"PLACE_FIPS":1335716,"POPULATION":15577,"POP_CLASS":6,"POP_SQMI":2950.19995,"SQMI":5.28000021,"CAPITAL":" "}},{"type":"Feature","id":146,"geometry":{"type":"Point","coordinates":[-81.581754540000006,31.846825250999991]},"properties":{"FID":146,"NAME":"Hinesville","CLASS":"city","STATE_ABBR":"GA","STATE_FIPS":13,"PLACE_FIPS":1338964,"POPULATION":34891,"POP_CLASS":6,"POP_SQMI":1898.30005,"SQMI":18.3799992,"CAPITAL":" "}},{"type":"Feature","id":147,"geometry":{"type":"Point","coordinates":[-81.889774797000001,31.599102117000005]},"properties":{"FID":147,"NAME":"Jesup","CLASS":"city","STATE_ABBR":"GA","STATE_FIPS":13,"PLACE_FIPS":1342268,"POPULATION":9809,"POP_CLASS":5,"POP_SQMI":585.299988,"SQMI":16.7600002,"CAPITAL":" "}},{"type":"Feature","id":148,"geometry":{"type":"Point","coordinates":[-84.202752998999998,34.033288083000102]},"properties":{"FID":148,"NAME":"Johns Creek","CLASS":"city","STATE_ABBR":"GA","STATE_FIPS":13,"PLACE_FIPS":1342425,"POPULATION":82453,"POP_CLASS":7,"POP_SQMI":2630.8999,"SQMI":31.3400002,"CAPITAL":" "}},{"type":"Feature","id":149,"geometry":{"type":"Point","coordinates":[-84.617846178999997,34.025402484999994]},"properties":{"FID":149,"NAME":"Kennesaw","CLASS":"city","STATE_ABBR":"GA","STATE_FIPS":13,"PLACE_FIPS":1343192,"POPULATION":33036,"POP_CLASS":6,"POP_SQMI":3364.19995,"SQMI":9.81999969,"CAPITAL":" "}},{"type":"Feature","id":150,"geometry":{"type":"Point","coordinates":[-81.687767476000005,30.798746402000098]},"properties":{"FID":150,"NAME":"Kingsland","CLASS":"city","STATE_ABBR":"GA","STATE_FIPS":13,"PLACE_FIPS":1343640,"POPULATION":18337,"POP_CLASS":6,"POP_SQMI":407.899994,"SQMI":44.9500008,"CAPITAL":" "}},{"type":"Feature","id":151,"geometry":{"type":"Point","coordinates":[-85.036577910999881,33.029002554000002]},"properties":{"FID":151,"NAME":"LaGrange","CLASS":"city","STATE_ABBR":"GA","STATE_FIPS":13,"PLACE_FIPS":1344340,"POPULATION":30858,"POP_CLASS":6,"POP_SQMI":718,"SQMI":42.9799995,"CAPITAL":" "}},{"type":"Feature","id":152,"geometry":{"type":"Point","coordinates":[-83.993086634999898,33.952420613000093]},"properties":{"FID":152,"NAME":"Lawrenceville","CLASS":"city","STATE_ABBR":"GA","STATE_FIPS":13,"PLACE_FIPS":1345488,"POPULATION":30629,"POP_CLASS":6,"POP_SQMI":2230.80005,"SQMI":13.7299995,"CAPITAL":" "}},{"type":"Feature","id":153,"geometry":{"type":"Point","coordinates":[-84.137923902999916,33.888706497000001]},"properties":{"FID":153,"NAME":"Lilburn","CLASS":"city","STATE_ABBR":"GA","STATE_FIPS":13,"PLACE_FIPS":1346356,"POPULATION":14502,"POP_CLASS":6,"POP_SQMI":2114,"SQMI":6.86000013,"CAPITAL":" "}},{"type":"Feature","id":154,"geometry":{"type":"Point","coordinates":[-84.644889000000006,33.781379819000094]},"properties":{"FID":154,"NAME":"Lithia Springs","CLASS":"Census Designated Place","STATE_ABBR":"GA","STATE_FIPS":13,"PLACE_FIPS":1346832,"POPULATION":16644,"POP_CLASS":6,"POP_SQMI":1227.40002,"SQMI":13.5600004,"CAPITAL":" "}},{"type":"Feature","id":155,"geometry":{"type":"Point","coordinates":[-83.895615253000003,33.834960991999985]},"properties":{"FID":155,"NAME":"Loganville","CLASS":"city","STATE_ABBR":"GA","STATE_FIPS":13,"PLACE_FIPS":1347196,"POPULATION":14127,"POP_CLASS":6,"POP_SQMI":1896.19995,"SQMI":7.44999981,"CAPITAL":" "}},{"type":"Feature","id":156,"geometry":{"type":"Point","coordinates":[-84.565568696999904,33.813163453000094]},"properties":{"FID":156,"NAME":"Mableton","CLASS":"Census Designated Place","STATE_ABBR":"GA","STATE_FIPS":13,"PLACE_FIPS":1348288,"POPULATION":40834,"POP_CLASS":6,"POP_SQMI":1966,"SQMI":20.7700005,"CAPITAL":" "}},{"type":"Feature","id":157,"geometry":{"type":"Point","coordinates":[-84.156612999999894,33.433749892000009]},"properties":{"FID":157,"NAME":"McDonough","CLASS":"city","STATE_ABBR":"GA","STATE_FIPS":13,"PLACE_FIPS":1348624,"POPULATION":29051,"POP_CLASS":6,"POP_SQMI":2233,"SQMI":13.0100002,"CAPITAL":" "}},{"type":"Feature","id":158,"geometry":{"type":"Point","coordinates":[-84.537310453000003,33.952717721000091]},"properties":{"FID":158,"NAME":"Marietta","CLASS":"city","STATE_ABBR":"GA","STATE_FIPS":13,"PLACE_FIPS":1349756,"POPULATION":60972,"POP_CLASS":7,"POP_SQMI":2593.3999,"SQMI":23.5100002,"CAPITAL":" "}},{"type":"Feature","id":159,"geometry":{"type":"Point","coordinates":[-82.098447487000001,33.52092172400009]},"properties":{"FID":159,"NAME":"Martinez","CLASS":"Census Designated Place","STATE_ABBR":"GA","STATE_FIPS":13,"PLACE_FIPS":1350036,"POPULATION":34535,"POP_CLASS":6,"POP_SQMI":2362.19995,"SQMI":14.6199999,"CAPITAL":" "}},{"type":"Feature","id":160,"geometry":{"type":"Point","coordinates":[-83.251387500000007,33.084159177000096]},"properties":{"FID":160,"NAME":"Milledgeville","CLASS":"city","STATE_ABBR":"GA","STATE_FIPS":13,"PLACE_FIPS":1351492,"POPULATION":17070,"POP_CLASS":6,"POP_SQMI":833.5,"SQMI":20.4799995,"CAPITAL":" "}},{"type":"Feature","id":161,"geometry":{"type":"Point","coordinates":[-84.313565943999905,34.135172070000102]},"properties":{"FID":161,"NAME":"Milton","CLASS":"city","STATE_ABBR":"GA","STATE_FIPS":13,"PLACE_FIPS":1351670,"POPULATION":41296,"POP_CLASS":6,"POP_SQMI":1055.90002,"SQMI":39.1100006,"CAPITAL":" "}},{"type":"Feature","id":162,"geometry":{"type":"Point","coordinates":[-83.714704999999995,33.794526807000103]},"properties":{"FID":162,"NAME":"Monroe","CLASS":"city","STATE_ABBR":"GA","STATE_FIPS":13,"PLACE_FIPS":1352192,"POPULATION":14928,"POP_CLASS":6,"POP_SQMI":939.5,"SQMI":15.8900003,"CAPITAL":" "}},{"type":"Feature","id":163,"geometry":{"type":"Point","coordinates":[-83.786605866999892,31.179606985000103]},"properties":{"FID":163,"NAME":"Moultrie","CLASS":"city","STATE_ABBR":"GA","STATE_FIPS":13,"PLACE_FIPS":1353060,"POPULATION":14638,"POP_CLASS":6,"POP_SQMI":869.799988,"SQMI":16.8299999,"CAPITAL":" "}},{"type":"Feature","id":164,"geometry":{"type":"Point","coordinates":[-84.130893473999905,33.845541250000096]},"properties":{"FID":164,"NAME":"Mountain Park","CLASS":"Census Designated Place","STATE_ABBR":"GA","STATE_FIPS":13,"PLACE_FIPS":1353186,"POPULATION":13089,"POP_CLASS":6,"POP_SQMI":2249,"SQMI":5.82000017,"CAPITAL":" "}},{"type":"Feature","id":165,"geometry":{"type":"Point","coordinates":[-84.797482381999899,33.373960915000097]},"properties":{"FID":165,"NAME":"Newnan","CLASS":"city","STATE_ABBR":"GA","STATE_FIPS":13,"PLACE_FIPS":1355020,"POPULATION":42549,"POP_CLASS":6,"POP_SQMI":2158.80005,"SQMI":19.7099991,"CAPITAL":" "}},{"type":"Feature","id":166,"geometry":{"type":"Point","coordinates":[-84.288889295000004,33.807318825999985]},"properties":{"FID":166,"NAME":"North Decatur","CLASS":"Census Designated Place","STATE_ABBR":"GA","STATE_FIPS":13,"PLACE_FIPS":1356112,"POPULATION":18511,"POP_CLASS":6,"POP_SQMI":3770.1001,"SQMI":4.90999985,"CAPITAL":" "}},{"type":"Feature","id":167,"geometry":{"type":"Point","coordinates":[-84.326068633000006,33.818982848000097]},"properties":{"FID":167,"NAME":"North Druid Hills","CLASS":"Census Designated Place","STATE_ABBR":"GA","STATE_FIPS":13,"PLACE_FIPS":1356168,"POPULATION":20385,"POP_CLASS":6,"POP_SQMI":4520,"SQMI":4.51000023,"CAPITAL":" "}},{"type":"Feature","id":168,"geometry":{"type":"Point","coordinates":[-84.571106739999905,33.394253933000087]},"properties":{"FID":168,"NAME":"Peachtree City","CLASS":"city","STATE_ABBR":"GA","STATE_FIPS":13,"PLACE_FIPS":1359724,"POPULATION":38244,"POP_CLASS":6,"POP_SQMI":1468.09998,"SQMI":26.0499992,"CAPITAL":" "}},{"type":"Feature","id":169,"geometry":{"type":"Point","coordinates":[-83.725256137000002,32.472537644000091]},"properties":{"FID":169,"NAME":"Perry","CLASS":"city","STATE_ABBR":"GA","STATE_FIPS":13,"PLACE_FIPS":1360340,"POPULATION":20624,"POP_CLASS":6,"POP_SQMI":760.799988,"SQMI":27.1100006,"CAPITAL":" "}},{"type":"Feature","id":170,"geometry":{"type":"Point","coordinates":[-81.253346995000001,32.10257071800001]},"properties":{"FID":170,"NAME":"Pooler","CLASS":"city","STATE_ABBR":"GA","STATE_FIPS":13,"PLACE_FIPS":1362104,"POPULATION":25711,"POP_CLASS":6,"POP_SQMI":921.5,"SQMI":27.8999996,"CAPITAL":" "}},{"type":"Feature","id":171,"geometry":{"type":"Point","coordinates":[-84.663600000000002,33.866949284999997]},"properties":{"FID":171,"NAME":"Powder Springs","CLASS":"city","STATE_ABBR":"GA","STATE_FIPS":13,"PLACE_FIPS":1362524,"POPULATION":16887,"POP_CLASS":6,"POP_SQMI":2285.1001,"SQMI":7.38999987,"CAPITAL":" "}},{"type":"Feature","id":172,"geometry":{"type":"Point","coordinates":[-84.158922158999985,33.737594339999994]},"properties":{"FID":172,"NAME":"Redan","CLASS":"Census Designated Place","STATE_ABBR":"GA","STATE_FIPS":13,"PLACE_FIPS":1363952,"POPULATION":31749,"POP_CLASS":6,"POP_SQMI":3905.19995,"SQMI":8.13000011,"CAPITAL":" "}},{"type":"Feature","id":173,"geometry":{"type":"Point","coordinates":[-81.316960999999907,31.933807667999993]},"properties":{"FID":173,"NAME":"Richmond Hill","CLASS":"city","STATE_ABBR":"GA","STATE_FIPS":13,"PLACE_FIPS":1365044,"POPULATION":16633,"POP_CLASS":6,"POP_SQMI":682.5,"SQMI":24.3700008,"CAPITAL":" "}},{"type":"Feature","id":174,"geometry":{"type":"Point","coordinates":[-84.410350769000019,33.563692566999997]},"properties":{"FID":174,"NAME":"Riverdale","CLASS":"city","STATE_ABBR":"GA","STATE_FIPS":13,"PLACE_FIPS":1365464,"POPULATION":15129,"POP_CLASS":6,"POP_SQMI":3422.8999,"SQMI":4.42000008,"CAPITAL":" "}},{"type":"Feature","id":175,"geometry":{"type":"Point","coordinates":[-85.160723848999993,34.242596687000095]},"properties":{"FID":175,"NAME":"Rome","CLASS":"city","STATE_ABBR":"GA","STATE_FIPS":13,"PLACE_FIPS":1366668,"POPULATION":37713,"POP_CLASS":6,"POP_SQMI":1162.19995,"SQMI":32.4500008,"CAPITAL":" "}},{"type":"Feature","id":176,"geometry":{"type":"Point","coordinates":[-84.351244977000007,34.039147802000095]},"properties":{"FID":176,"NAME":"Roswell","CLASS":"city","STATE_ABBR":"GA","STATE_FIPS":13,"PLACE_FIPS":1367284,"POPULATION":92833,"POP_CLASS":7,"POP_SQMI":2210.30005,"SQMI":42,"CAPITAL":" "}},{"type":"Feature","id":177,"geometry":{"type":"Point","coordinates":[-81.580491566999982,30.762523869000091]},"properties":{"FID":177,"NAME":"St. Marys","CLASS":"city","STATE_ABBR":"GA","STATE_FIPS":13,"PLACE_FIPS":1367984,"POPULATION":18256,"POP_CLASS":6,"POP_SQMI":763.5,"SQMI":23.9099998,"CAPITAL":" "}},{"type":"Feature","id":178,"geometry":{"type":"Point","coordinates":[-81.382405999999904,31.177428425000109]},"properties":{"FID":178,"NAME":"St. Simons","CLASS":"Census Designated Place","STATE_ABBR":"GA","STATE_FIPS":13,"PLACE_FIPS":1368040,"POPULATION":14982,"POP_CLASS":6,"POP_SQMI":899.799988,"SQMI":16.6499996,"CAPITAL":" "}},{"type":"Feature","id":179,"geometry":{"type":"Point","coordinates":[-84.370318980999997,33.936668511999983]},"properties":{"FID":179,"NAME":"Sandy Springs","CLASS":"city","STATE_ABBR":"GA","STATE_FIPS":13,"PLACE_FIPS":1368516,"POPULATION":108080,"POP_CLASS":8,"POP_SQMI":2805.80005,"SQMI":38.5200005,"CAPITAL":" "}},{"type":"Feature","id":180,"geometry":{"type":"Point","coordinates":[-81.091221192999996,32.079344254000006]},"properties":{"FID":180,"NAME":"Savannah","CLASS":"city","STATE_ABBR":"GA","STATE_FIPS":13,"PLACE_FIPS":1369000,"POPULATION":147780,"POP_CLASS":8,"POP_SQMI":1376.90002,"SQMI":107.330002,"CAPITAL":" "}},{"type":"Feature","id":181,"geometry":{"type":"Point","coordinates":[-84.262898179999993,33.795120016000098]},"properties":{"FID":181,"NAME":"Scottdale","CLASS":"Census Designated Place","STATE_ABBR":"GA","STATE_FIPS":13,"PLACE_FIPS":1369392,"POPULATION":10698,"POP_CLASS":6,"POP_SQMI":3212.6001,"SQMI":3.32999992,"CAPITAL":" "}},{"type":"Feature","id":182,"geometry":{"type":"Point","coordinates":[-84.516806504000002,33.86436244900009]},"properties":{"FID":182,"NAME":"Smyrna","CLASS":"city","STATE_ABBR":"GA","STATE_FIPS":13,"PLACE_FIPS":1371492,"POPULATION":55663,"POP_CLASS":7,"POP_SQMI":3570.3999,"SQMI":15.5900002,"CAPITAL":" "}},{"type":"Feature","id":183,"geometry":{"type":"Point","coordinates":[-83.995840000000001,33.845528940000101]},"properties":{"FID":183,"NAME":"Snellville","CLASS":"city","STATE_ABBR":"GA","STATE_FIPS":13,"PLACE_FIPS":1371604,"POPULATION":20573,"POP_CLASS":6,"POP_SQMI":1940.80005,"SQMI":10.6000004,"CAPITAL":" "}},{"type":"Feature","id":184,"geometry":{"type":"Point","coordinates":[-81.775977814000001,32.439437327000093]},"properties":{"FID":184,"NAME":"Statesboro","CLASS":"city","STATE_ABBR":"GA","STATE_FIPS":13,"PLACE_FIPS":1373256,"POPULATION":33438,"POP_CLASS":6,"POP_SQMI":2186.8999,"SQMI":15.29,"CAPITAL":" "}},{"type":"Feature","id":185,"geometry":{"type":"Point","coordinates":[-84.229738040000001,33.541378342000002]},"properties":{"FID":185,"NAME":"Stockbridge","CLASS":"city","STATE_ABBR":"GA","STATE_FIPS":13,"PLACE_FIPS":1373704,"POPULATION":28973,"POP_CLASS":6,"POP_SQMI":2096.5,"SQMI":13.8199997,"CAPITAL":" "}},{"type":"Feature","id":186,"geometry":{"type":"Point","coordinates":[-84.028194749999997,34.102120190000093]},"properties":{"FID":186,"NAME":"Sugar Hill","CLASS":"city","STATE_ABBR":"GA","STATE_FIPS":13,"PLACE_FIPS":1374180,"POPULATION":25076,"POP_CLASS":6,"POP_SQMI":2247,"SQMI":11.1599998,"CAPITAL":" "}},{"type":"Feature","id":187,"geometry":{"type":"Point","coordinates":[-84.068723833999996,34.050578283999997]},"properties":{"FID":187,"NAME":"Suwanee","CLASS":"city","STATE_ABBR":"GA","STATE_FIPS":13,"PLACE_FIPS":1374936,"POPULATION":20786,"POP_CLASS":6,"POP_SQMI":1877.69995,"SQMI":11.0699997,"CAPITAL":" "}},{"type":"Feature","id":188,"geometry":{"type":"Point","coordinates":[-83.978234185999995,30.839850901999998]},"properties":{"FID":188,"NAME":"Thomasville","CLASS":"city","STATE_ABBR":"GA","STATE_FIPS":13,"PLACE_FIPS":1376224,"POPULATION":18881,"POP_CLASS":6,"POP_SQMI":1246.30005,"SQMI":15.1499996,"CAPITAL":" "}},{"type":"Feature","id":189,"geometry":{"type":"Point","coordinates":[-83.520574217999993,31.462457281000095]},"properties":{"FID":189,"NAME":"Tifton","CLASS":"city","STATE_ABBR":"GA","STATE_FIPS":13,"PLACE_FIPS":1376476,"POPULATION":17045,"POP_CLASS":6,"POP_SQMI":1320.30005,"SQMI":12.9099998,"CAPITAL":" "}},{"type":"Feature","id":190,"geometry":{"type":"Point","coordinates":[-84.222871566000009,33.853262242]},"properties":{"FID":190,"NAME":"Tucker","CLASS":"city","STATE_ABBR":"GA","STATE_FIPS":13,"PLACE_FIPS":1377652,"POPULATION":37005,"POP_CLASS":6,"POP_SQMI":1819.30005,"SQMI":20.3400002,"CAPITAL":" "}},{"type":"Feature","id":191,"geometry":{"type":"Point","coordinates":[-84.56077049999999,33.586285967000009]},"properties":{"FID":191,"NAME":"Union City","CLASS":"city","STATE_ABBR":"GA","STATE_FIPS":13,"PLACE_FIPS":1378324,"POPULATION":26830,"POP_CLASS":6,"POP_SQMI":1353,"SQMI":19.8299999,"CAPITAL":" "}},{"type":"Feature","id":192,"geometry":{"type":"Point","coordinates":[-83.279245184999994,30.849328175999993]},"properties":{"FID":192,"NAME":"Valdosta","CLASS":"city","STATE_ABBR":"GA","STATE_FIPS":13,"PLACE_FIPS":1378800,"POPULATION":55378,"POP_CLASS":7,"POP_SQMI":1520.09998,"SQMI":36.4300003,"CAPITAL":" "}},{"type":"Feature","id":193,"geometry":{"type":"Point","coordinates":[-82.403475349999994,32.213374640999994]},"properties":{"FID":193,"NAME":"Vidalia","CLASS":"city","STATE_ABBR":"GA","STATE_FIPS":13,"PLACE_FIPS":1379388,"POPULATION":10785,"POP_CLASS":6,"POP_SQMI":590.599976,"SQMI":18.2600002,"CAPITAL":" "}},{"type":"Feature","id":194,"geometry":{"type":"Point","coordinates":[-84.917835404999906,33.731204954000091]},"properties":{"FID":194,"NAME":"Villa Rica","CLASS":"city","STATE_ABBR":"GA","STATE_FIPS":13,"PLACE_FIPS":1379528,"POPULATION":16970,"POP_CLASS":6,"POP_SQMI":1148.19995,"SQMI":14.7799997,"CAPITAL":" "}},{"type":"Feature","id":195,"geometry":{"type":"Point","coordinates":[-84.468614293000002,33.86077037000009]},"properties":{"FID":195,"NAME":"Vinings","CLASS":"Census Designated Place","STATE_ABBR":"GA","STATE_FIPS":13,"PLACE_FIPS":1379612,"POPULATION":12581,"POP_CLASS":6,"POP_SQMI":3895,"SQMI":3.23000002,"CAPITAL":" "}},{"type":"Feature","id":196,"geometry":{"type":"Point","coordinates":[-83.586601334999997,32.607314465999998]},"properties":{"FID":196,"NAME":"Warner Robins","CLASS":"city","STATE_ABBR":"GA","STATE_FIPS":13,"PLACE_FIPS":1380508,"POPULATION":80308,"POP_CLASS":7,"POP_SQMI":2107.80005,"SQMI":38.0999985,"CAPITAL":" "}},{"type":"Feature","id":197,"geometry":{"type":"Point","coordinates":[-82.357910813000004,31.210949689000092]},"properties":{"FID":197,"NAME":"Waycross","CLASS":"city","STATE_ABBR":"GA","STATE_FIPS":13,"PLACE_FIPS":1380956,"POPULATION":13942,"POP_CLASS":6,"POP_SQMI":1165.69995,"SQMI":11.96,"CAPITAL":" "}},{"type":"Feature","id":198,"geometry":{"type":"Point","coordinates":[-80.973359007999989,32.004626434999992]},"properties":{"FID":198,"NAME":"Wilmington Island","CLASS":"Census Designated Place","STATE_ABBR":"GA","STATE_FIPS":13,"PLACE_FIPS":1383168,"POPULATION":15129,"POP_CLASS":6,"POP_SQMI":1807.5,"SQMI":8.36999989,"CAPITAL":" "}},{"type":"Feature","id":199,"geometry":{"type":"Point","coordinates":[-83.719922643000004,33.992296818999996]},"properties":{"FID":199,"NAME":"Winder","CLASS":"city","STATE_ABBR":"GA","STATE_FIPS":13,"PLACE_FIPS":1383420,"POPULATION":18338,"POP_CLASS":6,"POP_SQMI":1294.09998,"SQMI":14.1700001,"CAPITAL":" "}},{"type":"Feature","id":200,"geometry":{"type":"Point","coordinates":[-84.508210000000005,34.0933235890001]},"properties":{"FID":200,"NAME":"Woodstock","CLASS":"city","STATE_ABBR":"GA","STATE_FIPS":13,"PLACE_FIPS":1384176,"POPULATION":35065,"POP_CLASS":6,"POP_SQMI":2787.3999,"SQMI":12.5799999,"CAPITAL":" "}},{"type":"Feature","id":201,"geometry":{"type":"Point","coordinates":[-157.74999374999999,21.302205558000015]},"properties":{"FID":201,"NAME":"East Honolulu","CLASS":"Census Designated Place","STATE_ABBR":"HI","STATE_FIPS":15,"PLACE_FIPS":1506290,"POPULATION":50922,"POP_CLASS":7,"POP_SQMI":2213,"SQMI":23.0100002,"CAPITAL":" "}},{"type":"Feature","id":202,"geometry":{"type":"Point","coordinates":[-158.00742422100004,21.317880392000092]},"properties":{"FID":202,"NAME":"Ewa Beach","CLASS":"Census Designated Place","STATE_ABBR":"HI","STATE_FIPS":15,"PLACE_FIPS":1507450,"POPULATION":16415,"POP_CLASS":6,"POP_SQMI":13794.0996,"SQMI":1.19000006,"CAPITAL":" "}},{"type":"Feature","id":203,"geometry":{"type":"Point","coordinates":[-158.02595818200001,21.334287287999977]},"properties":{"FID":203,"NAME":"Ewa Gentry","CLASS":"Census Designated Place","STATE_ABBR":"HI","STATE_FIPS":15,"PLACE_FIPS":1507470,"POPULATION":25707,"POP_CLASS":6,"POP_SQMI":12069,"SQMI":2.13000011,"CAPITAL":" "}},{"type":"Feature","id":204,"geometry":{"type":"Point","coordinates":[-157.91843099100001,21.375395187999995]},"properties":{"FID":204,"NAME":"Halawa","CLASS":"Census Designated Place","STATE_ABBR":"HI","STATE_FIPS":15,"PLACE_FIPS":1510000,"POPULATION":15016,"POP_CLASS":6,"POP_SQMI":6282.7998,"SQMI":2.3900001,"CAPITAL":" "}},{"type":"Feature","id":205,"geometry":{"type":"Point","coordinates":[-154.96936726099997,19.582718559000092]},"properties":{"FID":205,"NAME":"Hawaiian Paradise Park","CLASS":"Census Designated Place","STATE_ABBR":"HI","STATE_FIPS":15,"PLACE_FIPS":1512600,"POPULATION":14957,"POP_CLASS":6,"POP_SQMI":977.599976,"SQMI":15.3000002,"CAPITAL":" "}},{"type":"Feature","id":206,"geometry":{"type":"Point","coordinates":[-155.079169828,19.717869092999994]},"properties":{"FID":206,"NAME":"Hilo","CLASS":"Census Designated Place","STATE_ABBR":"HI","STATE_FIPS":15,"PLACE_FIPS":1514650,"POPULATION":44186,"POP_CLASS":6,"POP_SQMI":823.099976,"SQMI":53.6800003,"CAPITAL":" "}},{"type":"Feature","id":207,"geometry":{"type":"Point","coordinates":[-156.460049113,20.871132332999988]},"properties":{"FID":207,"NAME":"Kahului","CLASS":"Census Designated Place","STATE_ABBR":"HI","STATE_FIPS":15,"PLACE_FIPS":1522700,"POPULATION":28219,"POP_CLASS":6,"POP_SQMI":1940.80005,"SQMI":14.54,"CAPITAL":" "}},{"type":"Feature","id":208,"geometry":{"type":"Point","coordinates":[-155.99198319999996,19.641054485999994]},"properties":{"FID":208,"NAME":"Kailua","CLASS":"Census Designated Place","STATE_ABBR":"HI","STATE_FIPS":15,"PLACE_FIPS":1523000,"POPULATION":19713,"POP_CLASS":6,"POP_SQMI":1428.5,"SQMI":13.8000002,"CAPITAL":" "}},{"type":"Feature","id":209,"geometry":{"type":"Point","coordinates":[-157.73442327599997,21.369316423999987]},"properties":{"FID":209,"NAME":"Kailua","CLASS":"Census Designated Place","STATE_ABBR":"HI","STATE_FIPS":15,"PLACE_FIPS":1523150,"POPULATION":40514,"POP_CLASS":6,"POP_SQMI":5128.3999,"SQMI":7.9000001,"CAPITAL":" "}},{"type":"Feature","id":210,"geometry":{"type":"Point","coordinates":[-157.79210851799999,21.4048263450001]},"properties":{"FID":210,"NAME":"Kaneohe","CLASS":"Census Designated Place","STATE_ABBR":"HI","STATE_FIPS":15,"PLACE_FIPS":1528250,"POPULATION":37430,"POP_CLASS":6,"POP_SQMI":5723.2002,"SQMI":6.53999996,"CAPITAL":" "}},{"type":"Feature","id":211,"geometry":{"type":"Point","coordinates":[-159.31905095500002,22.081138110000001]},"properties":{"FID":211,"NAME":"Kapaa","CLASS":"Census Designated Place","STATE_ABBR":"HI","STATE_FIPS":15,"PLACE_FIPS":1528850,"POPULATION":11652,"POP_CLASS":6,"POP_SQMI":1154.80005,"SQMI":10.0900002,"CAPITAL":" "}},{"type":"Feature","id":212,"geometry":{"type":"Point","coordinates":[-158.06648432100002,21.340289902999999]},"properties":{"FID":212,"NAME":"Kapolei","CLASS":"Census Designated Place","STATE_ABBR":"HI","STATE_FIPS":15,"PLACE_FIPS":1530300,"POPULATION":21411,"POP_CLASS":6,"POP_SQMI":4899.5,"SQMI":4.36999989,"CAPITAL":" "}},{"type":"Feature","id":213,"geometry":{"type":"Point","coordinates":[-156.44530253100001,20.764841490999999]},"properties":{"FID":213,"NAME":"Kihei","CLASS":"Census Designated Place","STATE_ABBR":"HI","STATE_FIPS":15,"PLACE_FIPS":1536500,"POPULATION":21423,"POP_CLASS":6,"POP_SQMI":2286.30005,"SQMI":9.36999989,"CAPITAL":" "}},{"type":"Feature","id":214,"geometry":{"type":"Point","coordinates":[-156.66067857600001,20.880178679999997]},"properties":{"FID":214,"NAME":"Lahaina","CLASS":"Census Designated Place","STATE_ABBR":"HI","STATE_FIPS":15,"PLACE_FIPS":1542950,"POPULATION":12702,"POP_CLASS":6,"POP_SQMI":1626.40002,"SQMI":7.80999994,"CAPITAL":" "}},{"type":"Feature","id":215,"geometry":{"type":"Point","coordinates":[-158.08123354299997,21.359006605999998]},"properties":{"FID":215,"NAME":"Makakilo","CLASS":"Census Designated Place","STATE_ABBR":"HI","STATE_FIPS":15,"PLACE_FIPS":1547600,"POPULATION":19877,"POP_CLASS":6,"POP_SQMI":5203.3999,"SQMI":3.81999993,"CAPITAL":" "}},{"type":"Feature","id":216,"geometry":{"type":"Point","coordinates":[-157.99472812400001,21.475623427000109]},"properties":{"FID":216,"NAME":"Mililani Mauka","CLASS":"Census Designated Place","STATE_ABBR":"HI","STATE_FIPS":15,"PLACE_FIPS":1551000,"POPULATION":21075,"POP_CLASS":6,"POP_SQMI":5282,"SQMI":3.99000001,"CAPITAL":" "}},{"type":"Feature","id":217,"geometry":{"type":"Point","coordinates":[-158.01464408199999,21.446506817000099]},"properties":{"FID":217,"NAME":"Mililani Town","CLASS":"Census Designated Place","STATE_ABBR":"HI","STATE_FIPS":15,"PLACE_FIPS":1551050,"POPULATION":28121,"POP_CLASS":6,"POP_SQMI":7012.7002,"SQMI":4.01000023,"CAPITAL":" "}},{"type":"Feature","id":218,"geometry":{"type":"Point","coordinates":[-158.13861782199999,21.381565534999993]},"properties":{"FID":218,"NAME":"Nanakuli","CLASS":"Census Designated Place","STATE_ABBR":"HI","STATE_FIPS":15,"PLACE_FIPS":1553900,"POPULATION":12195,"POP_CLASS":6,"POP_SQMI":4078.6001,"SQMI":2.99000001,"CAPITAL":" "}},{"type":"Feature","id":219,"geometry":{"type":"Point","coordinates":[-158.02892269899999,21.31430109399999]},"properties":{"FID":219,"NAME":"Ocean Pointe","CLASS":"Census Designated Place","STATE_ABBR":"HI","STATE_FIPS":15,"PLACE_FIPS":1556685,"POPULATION":14965,"POP_CLASS":6,"POP_SQMI":7408.3999,"SQMI":2.01999998,"CAPITAL":" "}},{"type":"Feature","id":220,"geometry":{"type":"Point","coordinates":[-157.95487397400001,21.405556700999991]},"properties":{"FID":220,"NAME":"Pearl City","CLASS":"Census Designated Place","STATE_ABBR":"HI","STATE_FIPS":15,"PLACE_FIPS":1562600,"POPULATION":45295,"POP_CLASS":6,"POP_SQMI":4966.6001,"SQMI":9.11999989,"CAPITAL":" "}},{"type":"Feature","id":221,"geometry":{"type":"Point","coordinates":[-158.03183397699999,21.405262578000102]},"properties":{"FID":221,"NAME":"Royal Kunia","CLASS":"Census Designated Place","STATE_ABBR":"HI","STATE_FIPS":15,"PLACE_FIPS":1568815,"POPULATION":14896,"POP_CLASS":6,"POP_SQMI":4948.7998,"SQMI":3.00999999,"CAPITAL":" "}},{"type":"Feature","id":222,"geometry":{"type":"Point","coordinates":[-158.06174133600001,21.493591176999992]},"properties":{"FID":222,"NAME":"Schofield Barracks","CLASS":"Census Designated Place","STATE_ABBR":"HI","STATE_FIPS":15,"PLACE_FIPS":1569050,"POPULATION":14904,"POP_CLASS":6,"POP_SQMI":5380.5,"SQMI":2.76999998,"CAPITAL":" "}},{"type":"Feature","id":223,"geometry":{"type":"Point","coordinates":[-157.84272340999996,21.330784386000097]},"properties":{"FID":223,"NAME":"Urban Honolulu","CLASS":"Census Designated Place","STATE_ABBR":"HI","STATE_FIPS":15,"PLACE_FIPS":1571550,"POPULATION":350964,"POP_CLASS":9,"POP_SQMI":5767.7002,"SQMI":60.8499985,"CAPITAL":"State"}},{"type":"Feature","id":224,"geometry":{"type":"Point","coordinates":[-158.019975722,21.500390976000098]},"properties":{"FID":224,"NAME":"Wahiawa","CLASS":"Census Designated Place","STATE_ABBR":"HI","STATE_FIPS":15,"PLACE_FIPS":1572650,"POPULATION":18658,"POP_CLASS":6,"POP_SQMI":7345.7002,"SQMI":2.53999996,"CAPITAL":" "}},{"type":"Feature","id":225,"geometry":{"type":"Point","coordinates":[-158.17585797500001,21.456836483000099]},"properties":{"FID":225,"NAME":"Waianae","CLASS":"Census Designated Place","STATE_ABBR":"HI","STATE_FIPS":15,"PLACE_FIPS":1574450,"POPULATION":13614,"POP_CLASS":6,"POP_SQMI":2521.1001,"SQMI":5.4000001,"CAPITAL":" "}},{"type":"Feature","id":226,"geometry":{"type":"Point","coordinates":[-156.50903183400001,20.878317166999995]},"properties":{"FID":226,"NAME":"Wailuku","CLASS":"Census Designated Place","STATE_ABBR":"HI","STATE_FIPS":15,"PLACE_FIPS":1577450,"POPULATION":17697,"POP_CLASS":6,"POP_SQMI":3358.1001,"SQMI":5.26999998,"CAPITAL":" "}},{"type":"Feature","id":227,"geometry":{"type":"Point","coordinates":[-157.94187424899997,21.388269704999988]},"properties":{"FID":227,"NAME":"Waimalu","CLASS":"Census Designated Place","STATE_ABBR":"HI","STATE_FIPS":15,"PLACE_FIPS":1577750,"POPULATION":13817,"POP_CLASS":6,"POP_SQMI":7550.2998,"SQMI":1.83000004,"CAPITAL":" "}},{"type":"Feature","id":228,"geometry":{"type":"Point","coordinates":[-158.00996268400002,21.386430110999996]},"properties":{"FID":228,"NAME":"Waipahu","CLASS":"Census Designated Place","STATE_ABBR":"HI","STATE_FIPS":15,"PLACE_FIPS":1579700,"POPULATION":43485,"POP_CLASS":6,"POP_SQMI":16225.7002,"SQMI":2.68000007,"CAPITAL":" "}},{"type":"Feature","id":229,"geometry":{"type":"Point","coordinates":[-157.996574361,21.414336337000083]},"properties":{"FID":229,"NAME":"Waipio","CLASS":"Census Designated Place","STATE_ABBR":"HI","STATE_FIPS":15,"PLACE_FIPS":1579860,"POPULATION":12082,"POP_CLASS":6,"POP_SQMI":9665.59961,"SQMI":1.25,"CAPITAL":" "}},{"type":"Feature","id":230,"geometry":{"type":"Point","coordinates":[-111.95410287,43.475792356000099]},"properties":{"FID":230,"NAME":"Ammon","CLASS":"city","STATE_ABBR":"ID","STATE_FIPS":16,"PLACE_FIPS":1601990,"POPULATION":17694,"POP_CLASS":6,"POP_SQMI":2312.8999,"SQMI":7.6500001,"CAPITAL":" "}},{"type":"Feature","id":231,"geometry":{"type":"Point","coordinates":[-112.345567024,43.193937101000103]},"properties":{"FID":231,"NAME":"Blackfoot","CLASS":"city","STATE_ABBR":"ID","STATE_FIPS":16,"PLACE_FIPS":1607840,"POPULATION":12346,"POP_CLASS":6,"POP_SQMI":1988.09998,"SQMI":6.21000004,"CAPITAL":" "}},{"type":"Feature","id":232,"geometry":{"type":"Point","coordinates":[-116.230110212,43.599014809000003]},"properties":{"FID":232,"NAME":"Boise City","CLASS":"city","STATE_ABBR":"ID","STATE_FIPS":16,"PLACE_FIPS":1608830,"POPULATION":235684,"POP_CLASS":8,"POP_SQMI":2772.80005,"SQMI":85,"CAPITAL":"State"}},{"type":"Feature","id":233,"geometry":{"type":"Point","coordinates":[-113.79329273,42.536740885]},"properties":{"FID":233,"NAME":"Burley","CLASS":"city","STATE_ABBR":"ID","STATE_FIPS":16,"PLACE_FIPS":1611260,"POPULATION":11704,"POP_CLASS":6,"POP_SQMI":1739.09998,"SQMI":6.73000002,"CAPITAL":" "}},{"type":"Feature","id":234,"geometry":{"type":"Point","coordinates":[-116.68561886099998,43.661626053000084]},"properties":{"FID":234,"NAME":"Caldwell","CLASS":"city","STATE_ABBR":"ID","STATE_FIPS":16,"PLACE_FIPS":1612250,"POPULATION":59996,"POP_CLASS":7,"POP_SQMI":2616.5,"SQMI":22.9300003,"CAPITAL":" "}},{"type":"Feature","id":235,"geometry":{"type":"Point","coordinates":[-112.46955780099999,42.922745673000101]},"properties":{"FID":235,"NAME":"Chubbuck","CLASS":"city","STATE_ABBR":"ID","STATE_FIPS":16,"PLACE_FIPS":1614680,"POPULATION":15570,"POP_CLASS":6,"POP_SQMI":2590.69995,"SQMI":6.01000023,"CAPITAL":" "}},{"type":"Feature","id":236,"geometry":{"type":"Point","coordinates":[-116.79315011899999,47.704589082999988]},"properties":{"FID":236,"NAME":"Coeur d'Alene","CLASS":"city","STATE_ABBR":"ID","STATE_FIPS":16,"PLACE_FIPS":1616750,"POPULATION":54628,"POP_CLASS":7,"POP_SQMI":3238.19995,"SQMI":16.8700008,"CAPITAL":" "}},{"type":"Feature","id":237,"geometry":{"type":"Point","coordinates":[-116.35088448899999,43.694687644000084]},"properties":{"FID":237,"NAME":"Eagle","CLASS":"city","STATE_ABBR":"ID","STATE_FIPS":16,"PLACE_FIPS":1623410,"POPULATION":30346,"POP_CLASS":6,"POP_SQMI":968.599976,"SQMI":31.3299999,"CAPITAL":" "}},{"type":"Feature","id":238,"geometry":{"type":"Point","coordinates":[-116.2934025,43.664700546000091]},"properties":{"FID":238,"NAME":"Garden City","CLASS":"city","STATE_ABBR":"ID","STATE_FIPS":16,"PLACE_FIPS":1629620,"POPULATION":12316,"POP_CLASS":6,"POP_SQMI":2877.6001,"SQMI":4.28000021,"CAPITAL":" "}},{"type":"Feature","id":239,"geometry":{"type":"Point","coordinates":[-116.80112223400002,47.768560221000008]},"properties":{"FID":239,"NAME":"Hayden","CLASS":"city","STATE_ABBR":"ID","STATE_FIPS":16,"PLACE_FIPS":1636370,"POPULATION":15570,"POP_CLASS":6,"POP_SQMI":1491.40002,"SQMI":10.4399996,"CAPITAL":" "}},{"type":"Feature","id":240,"geometry":{"type":"Point","coordinates":[-112.03610492599999,43.487631968000088]},"properties":{"FID":240,"NAME":"Idaho Falls","CLASS":"city","STATE_ABBR":"ID","STATE_FIPS":16,"PLACE_FIPS":1639700,"POPULATION":64818,"POP_CLASS":7,"POP_SQMI":2639.19995,"SQMI":24.5599995,"CAPITAL":" "}},{"type":"Feature","id":241,"geometry":{"type":"Point","coordinates":[-114.515693137,42.718450238999992]},"properties":{"FID":241,"NAME":"Jerome","CLASS":"city","STATE_ABBR":"ID","STATE_FIPS":16,"PLACE_FIPS":1641320,"POPULATION":12349,"POP_CLASS":6,"POP_SQMI":2181.80005,"SQMI":5.65999985,"CAPITAL":" "}},{"type":"Feature","id":242,"geometry":{"type":"Point","coordinates":[-116.40639722400002,43.489696635000001]},"properties":{"FID":242,"NAME":"Kuna","CLASS":"city","STATE_ABBR":"ID","STATE_FIPS":16,"PLACE_FIPS":1644290,"POPULATION":24011,"POP_CLASS":6,"POP_SQMI":1104,"SQMI":21.75,"CAPITAL":" "}},{"type":"Feature","id":243,"geometry":{"type":"Point","coordinates":[-117.01252799999999,46.402018555999994]},"properties":{"FID":243,"NAME":"Lewiston","CLASS":"city","STATE_ABBR":"ID","STATE_FIPS":16,"PLACE_FIPS":1646540,"POPULATION":34203,"POP_CLASS":6,"POP_SQMI":1886.5,"SQMI":18.1299992,"CAPITAL":" "}},{"type":"Feature","id":244,"geometry":{"type":"Point","coordinates":[-116.39685176099999,43.617670134000001]},"properties":{"FID":244,"NAME":"Meridian","CLASS":"city","STATE_ABBR":"ID","STATE_FIPS":16,"PLACE_FIPS":1652120,"POPULATION":117635,"POP_CLASS":8,"POP_SQMI":3346.69995,"SQMI":35.1500015,"CAPITAL":" "}},{"type":"Feature","id":245,"geometry":{"type":"Point","coordinates":[-116.99890247000002,46.730550457]},"properties":{"FID":245,"NAME":"Moscow","CLASS":"city","STATE_ABBR":"ID","STATE_FIPS":16,"PLACE_FIPS":1654550,"POPULATION":25435,"POP_CLASS":6,"POP_SQMI":3680.8999,"SQMI":6.90999985,"CAPITAL":" "}},{"type":"Feature","id":246,"geometry":{"type":"Point","coordinates":[-115.69656695899999,43.13279156300009]},"properties":{"FID":246,"NAME":"Mountain Home","CLASS":"city","STATE_ABBR":"ID","STATE_FIPS":16,"PLACE_FIPS":1654730,"POPULATION":15979,"POP_CLASS":6,"POP_SQMI":2516.3999,"SQMI":6.3499999,"CAPITAL":" "}},{"type":"Feature","id":247,"geometry":{"type":"Point","coordinates":[-116.56265671600001,43.582485866000091]},"properties":{"FID":247,"NAME":"Nampa","CLASS":"city","STATE_ABBR":"ID","STATE_FIPS":16,"PLACE_FIPS":1656260,"POPULATION":100200,"POP_CLASS":8,"POP_SQMI":2979.5,"SQMI":33.6300011,"CAPITAL":" "}},{"type":"Feature","id":248,"geometry":{"type":"Point","coordinates":[-112.440331355,42.863825835999997]},"properties":{"FID":248,"NAME":"Pocatello","CLASS":"city","STATE_ABBR":"ID","STATE_FIPS":16,"PLACE_FIPS":1664090,"POPULATION":56320,"POP_CLASS":7,"POP_SQMI":1680.19995,"SQMI":33.5200005,"CAPITAL":" "}},{"type":"Feature","id":249,"geometry":{"type":"Point","coordinates":[-81.785546939,30.047226094999999]},"properties":{"FID":249,"NAME":"Asbury Lake","CLASS":"Census Designated Place","STATE_ABBR":"FL","STATE_FIPS":12,"PLACE_FIPS":1202187,"POPULATION":11036,"POP_CLASS":6,"POP_SQMI":640.5,"SQMI":17.2299995,"CAPITAL":" "}},{"type":"Feature","id":250,"geometry":{"type":"Point","coordinates":[-84.191927000000007,30.555207179999993]},"properties":{"FID":250,"NAME":"Bradfordville","CLASS":"Census Designated Place","STATE_ABBR":"FL","STATE_FIPS":12,"PLACE_FIPS":1208075,"POPULATION":19183,"POP_CLASS":6,"POP_SQMI":850.299988,"SQMI":22.5599995,"CAPITAL":" "}},{"type":"Feature","id":251,"geometry":{"type":"Point","coordinates":[-81.550982097000002,28.310223942000093]},"properties":{"FID":251,"NAME":"Celebration","CLASS":"Census Designated Place","STATE_ABBR":"FL","STATE_FIPS":12,"PLACE_FIPS":1211285,"POPULATION":11178,"POP_CLASS":6,"POP_SQMI":1056.5,"SQMI":10.5799999,"CAPITAL":" "}},{"type":"Feature","id":252,"geometry":{"type":"Point","coordinates":[-82.459485139999998,28.993170750999994]},"properties":{"FID":252,"NAME":"Citrus Springs","CLASS":"Census Designated Place","STATE_ABBR":"FL","STATE_FIPS":12,"PLACE_FIPS":1212450,"POPULATION":10246,"POP_CLASS":6,"POP_SQMI":484.399994,"SQMI":21.1499996,"CAPITAL":" "}},{"type":"Feature","id":253,"geometry":{"type":"Point","coordinates":[-81.685855410000002,28.002841040000092]},"properties":{"FID":253,"NAME":"Cypress Gardens","CLASS":"Census Designated Place","STATE_ABBR":"FL","STATE_FIPS":12,"PLACE_FIPS":1216050,"POPULATION":10169,"POP_CLASS":6,"POP_SQMI":2561.5,"SQMI":3.97000003,"CAPITAL":" "}},{"type":"Feature","id":254,"geometry":{"type":"Point","coordinates":[-81.997785605999994,27.922680962000104]},"properties":{"FID":254,"NAME":"Fuller Heights","CLASS":"Census Designated Place","STATE_ABBR":"FL","STATE_FIPS":12,"PLACE_FIPS":1225025,"POPULATION":10467,"POP_CLASS":6,"POP_SQMI":2255.80005,"SQMI":4.63999987,"CAPITAL":" "}},{"type":"Feature","id":255,"geometry":{"type":"Point","coordinates":[-81.746004470999907,26.580917372999995]},"properties":{"FID":255,"NAME":"Gateway","CLASS":"Census Designated Place","STATE_ABBR":"FL","STATE_FIPS":12,"PLACE_FIPS":1225655,"POPULATION":10376,"POP_CLASS":6,"POP_SQMI":1758.59998,"SQMI":5.9000001,"CAPITAL":" "}},{"type":"Feature","id":256,"geometry":{"type":"Point","coordinates":[-81.851775950999993,28.559127435000086]},"properties":{"FID":256,"NAME":"Groveland","CLASS":"city","STATE_ABBR":"FL","STATE_FIPS":12,"PLACE_FIPS":1227800,"POPULATION":18505,"POP_CLASS":6,"POP_SQMI":707.900024,"SQMI":26.1399994,"CAPITAL":" "}},{"type":"Feature","id":257,"geometry":{"type":"Point","coordinates":[-82.394768318000004,27.418516379999996]},"properties":{"FID":257,"NAME":"Lakewood Ranch","CLASS":"Census Designated Place","STATE_ABBR":"FL","STATE_FIPS":12,"PLACE_FIPS":1239067,"POPULATION":34877,"POP_CLASS":6,"POP_SQMI":741.299988,"SQMI":47.0499992,"CAPITAL":" "}},{"type":"Feature","id":258,"geometry":{"type":"Point","coordinates":[-80.061404151000005,26.6199444310001]},"properties":{"FID":258,"NAME":"Lake Worth Beach","CLASS":"city","STATE_ABBR":"FL","STATE_FIPS":12,"PLACE_FIPS":1239081,"POPULATION":42219,"POP_CLASS":6,"POP_SQMI":7131.6001,"SQMI":5.92000008,"CAPITAL":" "}},{"type":"Feature","id":259,"geometry":{"type":"Point","coordinates":[-82.46129895,27.146028177000105]},"properties":{"FID":259,"NAME":"Laurel","CLASS":"Census Designated Place","STATE_ABBR":"FL","STATE_FIPS":12,"PLACE_FIPS":1239600,"POPULATION":12186,"POP_CLASS":6,"POP_SQMI":1296.40002,"SQMI":9.39999962,"CAPITAL":" "}},{"type":"Feature","id":260,"geometry":{"type":"Point","coordinates":[-82.219130079999999,29.075982453999995]},"properties":{"FID":260,"NAME":"Liberty Triangle","CLASS":"Census Designated Place","STATE_ABBR":"FL","STATE_FIPS":12,"PLACE_FIPS":1240387,"POPULATION":23759,"POP_CLASS":6,"POP_SQMI":1302.59998,"SQMI":18.2399998,"CAPITAL":" "}},{"type":"Feature","id":261,"geometry":{"type":"Point","coordinates":[-82.195301412999996,29.001072133000001]},"properties":{"FID":261,"NAME":"Marion Oaks","CLASS":"Census Designated Place","STATE_ABBR":"FL","STATE_FIPS":12,"PLACE_FIPS":1243300,"POPULATION":19034,"POP_CLASS":6,"POP_SQMI":644.599976,"SQMI":29.5300007,"CAPITAL":" "}},{"type":"Feature","id":262,"geometry":{"type":"Point","coordinates":[-81.986620015,27.957020134000089]},"properties":{"FID":262,"NAME":"Medulla","CLASS":"Census Designated Place","STATE_ABBR":"FL","STATE_FIPS":12,"PLACE_FIPS":1243925,"POPULATION":10871,"POP_CLASS":6,"POP_SQMI":1924.09998,"SQMI":5.6500001,"CAPITAL":" "}},{"type":"Feature","id":263,"geometry":{"type":"Point","coordinates":[-87.053652337000003,30.628657032999996]},"properties":{"FID":263,"NAME":"Milton","CLASS":"city","STATE_ABBR":"FL","STATE_FIPS":12,"PLACE_FIPS":1245750,"POPULATION":10197,"POP_CLASS":6,"POP_SQMI":1795.19995,"SQMI":5.67999983,"CAPITAL":" "}},{"type":"Feature","id":264,"geometry":{"type":"Point","coordinates":[-81.746676890999908,28.574411774999998]},"properties":{"FID":264,"NAME":"Minneola","CLASS":"city","STATE_ABBR":"FL","STATE_FIPS":12,"PLACE_FIPS":1245900,"POPULATION":13843,"POP_CLASS":6,"POP_SQMI":1207.90002,"SQMI":11.46,"CAPITAL":" "}},{"type":"Feature","id":265,"geometry":{"type":"Point","coordinates":[-80.421896392999912,25.516535709999996]},"properties":{"FID":265,"NAME":"Naranja","CLASS":"Census Designated Place","STATE_ABBR":"FL","STATE_FIPS":12,"PLACE_FIPS":1247700,"POPULATION":13509,"POP_CLASS":6,"POP_SQMI":8041.1001,"SQMI":1.67999995,"CAPITAL":" "}},{"type":"Feature","id":266,"geometry":{"type":"Point","coordinates":[-82.692887771000002,28.260669011000097]},"properties":{"FID":266,"NAME":"New Port Richey East","CLASS":"Census Designated Place","STATE_ABBR":"FL","STATE_FIPS":12,"PLACE_FIPS":1248525,"POPULATION":11015,"POP_CLASS":6,"POP_SQMI":2891.1001,"SQMI":3.80999994,"CAPITAL":" "}},{"type":"Feature","id":267,"geometry":{"type":"Point","coordinates":[-81.410547643000001,30.091833671000103]},"properties":{"FID":267,"NAME":"Nocatee","CLASS":"Census Designated Place","STATE_ABBR":"FL","STATE_FIPS":12,"PLACE_FIPS":1248850,"POPULATION":22503,"POP_CLASS":6,"POP_SQMI":834.400024,"SQMI":26.9699993,"CAPITAL":" "}},{"type":"Feature","id":268,"geometry":{"type":"Point","coordinates":[-82.286572610999897,29.105818707000001]},"properties":{"FID":268,"NAME":"On Top of the World","CLASS":"Census Designated Place","STATE_ABBR":"FL","STATE_FIPS":12,"PLACE_FIPS":1251587,"POPULATION":12668,"POP_CLASS":6,"POP_SQMI":723.5,"SQMI":17.5100002,"CAPITAL":" "}},{"type":"Feature","id":269,"geometry":{"type":"Point","coordinates":[-82.468980999999999,27.237719775000095]},"properties":{"FID":269,"NAME":"Palmer Ranch","CLASS":"Census Designated Place","STATE_ABBR":"FL","STATE_FIPS":12,"PLACE_FIPS":1254238,"POPULATION":14966,"POP_CLASS":6,"POP_SQMI":1829.59998,"SQMI":8.18000031,"CAPITAL":" "}},{"type":"Feature","id":270,"geometry":{"type":"Point","coordinates":[-82.237919332000004,28.288148208000095]},"properties":{"FID":270,"NAME":"Pasadena Hills","CLASS":"Census Designated Place","STATE_ABBR":"FL","STATE_FIPS":12,"PLACE_FIPS":1255305,"POPULATION":11120,"POP_CLASS":6,"POP_SQMI":358,"SQMI":31.0599995,"CAPITAL":" "}},{"type":"Feature","id":271,"geometry":{"type":"Point","coordinates":[-82.476161771000008,28.932996484000089]},"properties":{"FID":271,"NAME":"Pine Ridge","CLASS":"Census Designated Place","STATE_ABBR":"FL","STATE_FIPS":12,"PLACE_FIPS":1257058,"POPULATION":11042,"POP_CLASS":6,"POP_SQMI":444.299988,"SQMI":24.8500004,"CAPITAL":" "}},{"type":"Feature","id":272,"geometry":{"type":"Point","coordinates":[-80.189230499999994,27.135724354999994]},"properties":{"FID":272,"NAME":"Port Salerno","CLASS":"Census Designated Place","STATE_ABBR":"FL","STATE_FIPS":12,"PLACE_FIPS":1258727,"POPULATION":10401,"POP_CLASS":6,"POP_SQMI":2881.19995,"SQMI":3.6099999,"CAPITAL":" "}},{"type":"Feature","id":273,"geometry":{"type":"Point","coordinates":[-82.359263928999994,27.883150423000092]},"properties":{"FID":273,"NAME":"Progress Village","CLASS":"Census Designated Place","STATE_ABBR":"FL","STATE_FIPS":12,"PLACE_FIPS":1259050,"POPULATION":11188,"POP_CLASS":6,"POP_SQMI":3442.5,"SQMI":3.25,"CAPITAL":" "}},{"type":"Feature","id":274,"geometry":{"type":"Point","coordinates":[-82.279007276000002,26.884916574000002]},"properties":{"FID":274,"NAME":"Rotonda","CLASS":"Census Designated Place","STATE_ABBR":"FL","STATE_FIPS":12,"PLACE_FIPS":1261937,"POPULATION":10114,"POP_CLASS":6,"POP_SQMI":895.799988,"SQMI":11.29,"CAPITAL":" "}},{"type":"Feature","id":275,"geometry":{"type":"Point","coordinates":[-82.004973415999999,29.103068525000005]},"properties":{"FID":275,"NAME":"Silver Springs Shores","CLASS":"Census Designated Place","STATE_ABBR":"FL","STATE_FIPS":12,"PLACE_FIPS":1266175,"POPULATION":24846,"POP_CLASS":6,"POP_SQMI":1640,"SQMI":15.1499996,"CAPITAL":" "}},{"type":"Feature","id":276,"geometry":{"type":"Point","coordinates":[-82.498577198000021,28.732103575999993]},"properties":{"FID":276,"NAME":"Sugarmill Woods","CLASS":"Census Designated Place","STATE_ABBR":"FL","STATE_FIPS":12,"PLACE_FIPS":1268950,"POPULATION":11204,"POP_CLASS":6,"POP_SQMI":391.299988,"SQMI":28.6299992,"CAPITAL":" "}},{"type":"Feature","id":277,"geometry":{"type":"Point","coordinates":[-81.235562619999897,28.565701052000101]},"properties":{"FID":277,"NAME":"Union Park","CLASS":"Census Designated Place","STATE_ABBR":"FL","STATE_FIPS":12,"PLACE_FIPS":1273075,"POPULATION":10452,"POP_CLASS":6,"POP_SQMI":3629.19995,"SQMI":2.88000011,"CAPITAL":" "}},{"type":"Feature","id":278,"geometry":{"type":"Point","coordinates":[-80.736771572999899,28.243005216000004]},"properties":{"FID":278,"NAME":"Viera West","CLASS":"Census Designated Place","STATE_ABBR":"FL","STATE_FIPS":12,"PLACE_FIPS":1274370,"POPULATION":16688,"POP_CLASS":6,"POP_SQMI":1806.09998,"SQMI":9.23999977,"CAPITAL":" "}},{"type":"Feature","id":279,"geometry":{"type":"Point","coordinates":[-80.363938051999995,25.6060947510001]},"properties":{"FID":279,"NAME":"West Perrine","CLASS":"Census Designated Place","STATE_ABBR":"FL","STATE_FIPS":12,"PLACE_FIPS":1276700,"POPULATION":10602,"POP_CLASS":6,"POP_SQMI":6058.2998,"SQMI":1.75,"CAPITAL":" "}},{"type":"Feature","id":280,"geometry":{"type":"Point","coordinates":[-80.483456000000004,27.639051082999995]},"properties":{"FID":280,"NAME":"West Vero Corridor","CLASS":"Census Designated Place","STATE_ABBR":"FL","STATE_FIPS":12,"PLACE_FIPS":1276937,"POPULATION":10039,"POP_CLASS":6,"POP_SQMI":1684.40002,"SQMI":5.96000004,"CAPITAL":" "}},{"type":"Feature","id":281,"geometry":{"type":"Point","coordinates":[-82.031819308999985,28.864491245000096]},"properties":{"FID":281,"NAME":"Wildwood","CLASS":"city","STATE_ABBR":"FL","STATE_FIPS":12,"PLACE_FIPS":1277675,"POPULATION":15730,"POP_CLASS":6,"POP_SQMI":274.200012,"SQMI":57.3699989,"CAPITAL":" "}},{"type":"Feature","id":282,"geometry":{"type":"Point","coordinates":[-83.758592934000006,34.111243043999998]},"properties":{"FID":282,"NAME":"Braselton","CLASS":"town","STATE_ABBR":"GA","STATE_FIPS":13,"PLACE_FIPS":1310076,"POPULATION":13403,"POP_CLASS":6,"POP_SQMI":1014.59998,"SQMI":13.21,"CAPITAL":" "}},{"type":"Feature","id":283,"geometry":{"type":"Point","coordinates":[-84.331381491999906,33.875937624000102]},"properties":{"FID":283,"NAME":"Brookhaven","CLASS":"city","STATE_ABBR":"GA","STATE_FIPS":13,"PLACE_FIPS":1310944,"POPULATION":55161,"POP_CLASS":7,"POP_SQMI":4670.7002,"SQMI":11.8100004,"CAPITAL":" "}},{"type":"Feature","id":284,"geometry":{"type":"Point","coordinates":[-84.205163612999996,30.878909489000105]},"properties":{"FID":284,"NAME":"Cairo","CLASS":"city","STATE_ABBR":"GA","STATE_FIPS":13,"PLACE_FIPS":1312400,"POPULATION":10179,"POP_CLASS":6,"POP_SQMI":1027.09998,"SQMI":9.90999985,"CAPITAL":" "}},{"type":"Feature","id":285,"geometry":{"type":"Point","coordinates":[-85.266520249999999,34.014410009000095]},"properties":{"FID":285,"NAME":"Cedartown","CLASS":"city","STATE_ABBR":"GA","STATE_FIPS":13,"PLACE_FIPS":1314500,"POPULATION":10190,"POP_CLASS":6,"POP_SQMI":1112.40002,"SQMI":9.15999985,"CAPITAL":" "}},{"type":"Feature","id":286,"geometry":{"type":"Point","coordinates":[-84.240276745000003,33.810637550000003]},"properties":{"FID":286,"NAME":"Clarkston","CLASS":"city","STATE_ABBR":"GA","STATE_FIPS":13,"PLACE_FIPS":1316544,"POPULATION":14756,"POP_CLASS":6,"POP_SQMI":7933.2998,"SQMI":1.86000001,"CAPITAL":" "}},{"type":"Feature","id":287,"geometry":{"type":"Point","coordinates":[-84.279882000000001,33.906367191000093]},"properties":{"FID":287,"NAME":"Doraville","CLASS":"city","STATE_ABBR":"GA","STATE_FIPS":13,"PLACE_FIPS":1323536,"POPULATION":10623,"POP_CLASS":6,"POP_SQMI":2163.5,"SQMI":4.90999985,"CAPITAL":" "}},{"type":"Feature","id":288,"geometry":{"type":"Point","coordinates":[-85.259420249999906,34.926523498000101]},"properties":{"FID":288,"NAME":"Fort Oglethorpe","CLASS":"city","STATE_ABBR":"GA","STATE_FIPS":13,"PLACE_FIPS":1330956,"POPULATION":10423,"POP_CLASS":6,"POP_SQMI":749.900024,"SQMI":13.8999996,"CAPITAL":" "}},{"type":"Feature","id":289,"geometry":{"type":"Point","coordinates":[-81.171012137999995,32.097388298000091]},"properties":{"FID":289,"NAME":"Garden City","CLASS":"city","STATE_ABBR":"GA","STATE_FIPS":13,"PLACE_FIPS":1332048,"POPULATION":10289,"POP_CLASS":6,"POP_SQMI":711.099976,"SQMI":14.4700003,"CAPITAL":" "}},{"type":"Feature","id":290,"geometry":{"type":"Point","coordinates":[-84.489374466000001,34.166557148000003]},"properties":{"FID":290,"NAME":"Holly Springs","CLASS":"city","STATE_ABBR":"GA","STATE_FIPS":13,"PLACE_FIPS":1339524,"POPULATION":16213,"POP_CLASS":6,"POP_SQMI":2233.19995,"SQMI":7.26000023,"CAPITAL":" "}},{"type":"Feature","id":291,"geometry":{"type":"Point","coordinates":[-83.573246769999997,34.116909393000093]},"properties":{"FID":291,"NAME":"Jefferson","CLASS":"city","STATE_ABBR":"GA","STATE_FIPS":13,"PLACE_FIPS":1341988,"POPULATION":13233,"POP_CLASS":6,"POP_SQMI":579.400024,"SQMI":22.8400002,"CAPITAL":" "}},{"type":"Feature","id":292,"geometry":{"type":"Point","coordinates":[-84.317772614000006,33.440590820000089]},"properties":{"FID":292,"NAME":"Lovejoy","CLASS":"city","STATE_ABBR":"GA","STATE_FIPS":13,"PLACE_FIPS":1347616,"POPULATION":10122,"POP_CLASS":6,"POP_SQMI":3442.8999,"SQMI":2.94000006,"CAPITAL":" "}},{"type":"Feature","id":293,"geometry":{"type":"Point","coordinates":[-83.697427705999999,32.806504238999999]},"properties":{"FID":293,"NAME":"Macon-Bibb County","CLASS":"unknown","STATE_ABBR":"GA","STATE_FIPS":13,"PLACE_FIPS":1349008,"POPULATION":157346,"POP_CLASS":8,"POP_SQMI":617.299988,"SQMI":254.910004,"CAPITAL":" "}},{"type":"Feature","id":294,"geometry":{"type":"Point","coordinates":[-84.206460577999991,33.937871305999998]},"properties":{"FID":294,"NAME":"Norcross","CLASS":"city","STATE_ABBR":"GA","STATE_FIPS":13,"PLACE_FIPS":1355776,"POPULATION":17209,"POP_CLASS":6,"POP_SQMI":2789.1001,"SQMI":6.17000008,"CAPITAL":" "}},{"type":"Feature","id":295,"geometry":{"type":"Point","coordinates":[-84.280611828999994,33.669282124000091]},"properties":{"FID":295,"NAME":"Panthersville","CLASS":"Census Designated Place","STATE_ABBR":"GA","STATE_FIPS":13,"PLACE_FIPS":1359080,"POPULATION":11237,"POP_CLASS":6,"POP_SQMI":3045.30005,"SQMI":3.69000006,"CAPITAL":" "}},{"type":"Feature","id":296,"geometry":{"type":"Point","coordinates":[-84.232105490999999,33.966872563999992]},"properties":{"FID":296,"NAME":"Peachtree Corners","CLASS":"city","STATE_ABBR":"GA","STATE_FIPS":13,"PLACE_FIPS":1359735,"POPULATION":42243,"POP_CLASS":6,"POP_SQMI":2602.80005,"SQMI":16.2299995,"CAPITAL":" "}},{"type":"Feature","id":297,"geometry":{"type":"Point","coordinates":[-81.162112319000002,32.147454176000096]},"properties":{"FID":297,"NAME":"Port Wentworth","CLASS":"city","STATE_ABBR":"GA","STATE_FIPS":13,"PLACE_FIPS":1362328,"POPULATION":10878,"POP_CLASS":6,"POP_SQMI":675.200012,"SQMI":16.1100006,"CAPITAL":" "}},{"type":"Feature","id":298,"geometry":{"type":"Point","coordinates":[-81.235488332000003,32.293842852000097]},"properties":{"FID":298,"NAME":"Rincon","CLASS":"city","STATE_ABBR":"GA","STATE_FIPS":13,"PLACE_FIPS":1365296,"POPULATION":10934,"POP_CLASS":6,"POP_SQMI":1121.40002,"SQMI":9.75,"CAPITAL":" "}},{"type":"Feature","id":299,"geometry":{"type":"Point","coordinates":[-84.591816999999907,33.667045233000096]},"properties":{"FID":299,"NAME":"South Fulton","CLASS":"city","STATE_ABBR":"GA","STATE_FIPS":13,"PLACE_FIPS":1372122,"POPULATION":107436,"POP_CLASS":8,"POP_SQMI":1245.59998,"SQMI":86.25,"CAPITAL":" "}},{"type":"Feature","id":300,"geometry":{"type":"Point","coordinates":[-84.13717654700001,33.684178026999994]},"properties":{"FID":300,"NAME":"Stonecrest","CLASS":"city","STATE_ABBR":"GA","STATE_FIPS":13,"PLACE_FIPS":1373784,"POPULATION":59194,"POP_CLASS":7,"POP_SQMI":1559,"SQMI":37.9700012,"CAPITAL":" "}},{"type":"Feature","id":301,"geometry":{"type":"Point","coordinates":[-157.92213808499997,21.387141669000094]},"properties":{"FID":301,"NAME":"Aiea","CLASS":"Census Designated Place","STATE_ABBR":"HI","STATE_FIPS":15,"PLACE_FIPS":1500550,"POPULATION":10408,"POP_CLASS":6,"POP_SQMI":6269.8999,"SQMI":1.65999997,"CAPITAL":" "}},{"type":"Feature","id":302,"geometry":{"type":"Point","coordinates":[-156.012143818,19.733410801999995]},"properties":{"FID":302,"NAME":"Kaiminani","CLASS":"Census Designated Place","STATE_ABBR":"HI","STATE_FIPS":15,"PLACE_FIPS":1523675,"POPULATION":12590,"POP_CLASS":6,"POP_SQMI":338.600006,"SQMI":37.1800003,"CAPITAL":" "}},{"type":"Feature","id":303,"geometry":{"type":"Point","coordinates":[-158.16993355899999,21.413305989999991]},"properties":{"FID":303,"NAME":"Maili","CLASS":"Census Designated Place","STATE_ABBR":"HI","STATE_FIPS":15,"PLACE_FIPS":1547300,"POPULATION":11535,"POP_CLASS":6,"POP_SQMI":6745.6001,"SQMI":1.71000004,"CAPITAL":" "}},{"type":"Feature","id":304,"geometry":{"type":"Point","coordinates":[-116.94910649999998,47.721973533000003]},"properties":{"FID":304,"NAME":"Post Falls","CLASS":"city","STATE_ABBR":"ID","STATE_FIPS":16,"PLACE_FIPS":1664810,"POPULATION":38485,"POP_CLASS":6,"POP_SQMI":2531.8999,"SQMI":15.1999998,"CAPITAL":" "}},{"type":"Feature","id":305,"geometry":{"type":"Point","coordinates":[-111.792648167,43.822065211000108]},"properties":{"FID":305,"NAME":"Rexburg","CLASS":"city","STATE_ABBR":"ID","STATE_FIPS":16,"PLACE_FIPS":1667420,"POPULATION":39409,"POP_CLASS":6,"POP_SQMI":3886.5,"SQMI":10.1400003,"CAPITAL":" "}},{"type":"Feature","id":306,"geometry":{"type":"Point","coordinates":[-114.463897472,42.563029546000095]},"properties":{"FID":306,"NAME":"Twin Falls","CLASS":"city","STATE_ABBR":"ID","STATE_FIPS":16,"PLACE_FIPS":1682810,"POPULATION":51807,"POP_CLASS":7,"POP_SQMI":2660.8999,"SQMI":19.4699993,"CAPITAL":" "}},{"type":"Feature","id":307,"geometry":{"type":"Point","coordinates":[-87.9827877499999,41.924241440000102]},"properties":{"FID":307,"NAME":"Addison","CLASS":"village","STATE_ABBR":"IL","STATE_FIPS":17,"PLACE_FIPS":1700243,"POPULATION":35702,"POP_CLASS":6,"POP_SQMI":3570.19995,"SQMI":10,"CAPITAL":" "}},{"type":"Feature","id":308,"geometry":{"type":"Point","coordinates":[-88.315463463999905,42.162688944000102]},"properties":{"FID":308,"NAME":"Algonquin","CLASS":"village","STATE_ABBR":"IL","STATE_FIPS":17,"PLACE_FIPS":1700685,"POPULATION":29700,"POP_CLASS":6,"POP_SQMI":2376,"SQMI":12.5,"CAPITAL":" "}},{"type":"Feature","id":309,"geometry":{"type":"Point","coordinates":[-87.735069999000004,41.670278160000095]},"properties":{"FID":309,"NAME":"Alsip","CLASS":"village","STATE_ABBR":"IL","STATE_FIPS":17,"PLACE_FIPS":1701010,"POPULATION":19063,"POP_CLASS":6,"POP_SQMI":2875.30005,"SQMI":6.63000011,"CAPITAL":" "}},{"type":"Feature","id":310,"geometry":{"type":"Point","coordinates":[-90.182275169000008,38.891361415000105]},"properties":{"FID":310,"NAME":"Alton","CLASS":"city","STATE_ABBR":"IL","STATE_FIPS":17,"PLACE_FIPS":1701114,"POPULATION":25676,"POP_CLASS":6,"POP_SQMI":1513.90002,"SQMI":16.9599991,"CAPITAL":" "}},{"type":"Feature","id":311,"geometry":{"type":"Point","coordinates":[-88.094355750000005,42.478364374000094]},"properties":{"FID":311,"NAME":"Antioch","CLASS":"village","STATE_ABBR":"IL","STATE_FIPS":17,"PLACE_FIPS":1701595,"POPULATION":14622,"POP_CLASS":6,"POP_SQMI":1700.19995,"SQMI":8.60000038,"CAPITAL":" "}},{"type":"Feature","id":312,"geometry":{"type":"Point","coordinates":[-87.982545115999997,42.095568463000106]},"properties":{"FID":312,"NAME":"Arlington Heights","CLASS":"village","STATE_ABBR":"IL","STATE_FIPS":17,"PLACE_FIPS":1702154,"POPULATION":77676,"POP_CLASS":7,"POP_SQMI":4668,"SQMI":16.6399994,"CAPITAL":" "}},{"type":"Feature","id":313,"geometry":{"type":"Point","coordinates":[-88.306742499999999,41.7591644990001]},"properties":{"FID":313,"NAME":"Aurora","CLASS":"city","STATE_ABBR":"IL","STATE_FIPS":17,"PLACE_FIPS":1703012,"POPULATION":180542,"POP_CLASS":8,"POP_SQMI":3927.3999,"SQMI":45.9700012,"CAPITAL":" "}},